province,id_met,city,lat,lon,alt_sensor,alt_site
安徽,58015,砀山,34.27,116.20,45.4,44.2
安徽,58016,萧县,34.11,116.58,35.9,34.7
安徽,58102,亳州,33.52,115.46,39.2,37.7
安徽,58107,临泉,33.01,115.17,37.0,35.8
安徽,58108,界首,33.14,115.20,35.0,34.0
安徽,58109,太和,33.11,115.37,34.2,33.0
安徽,58112,天柱山,30.44,116.27,969.4,968.2
安徽,58113,濉溪,33.56,116.45,32.8,31.6
安徽,58114,涡阳,33.29,116.11,32.3,31.2
安徽,58116,淮北,33.59,116.50,32.7,31.5
安徽,58117,利辛,33.08,116.12,29.4,27.9
安徽,58118,蒙城,33.16,116.31,27.2,26.0
安徽,58122,宿州,33.38,116.59,27.1,25.9
安徽,58125,灵璧,33.35,117.31,24.4,22.9
安徽,58126,泗县,33.28,117.52,20.7,19.5
安徽,58127,怀远,32.59,117.12,22.4,21.2
安徽,58128,固镇,33.20,117.21,22.2,21.0
安徽,58129,五河,33.09,117.50,16.1,14.9
安徽,58202,阜南,32.40,115.34,32.4,31.2
安徽,58203,阜阳,32.52,115.44,33.9,32.7
安徽,58210,颍上,32.39,116.14,26.2,25.2
安徽,58212,凤台,32.43,116.46,24.2,23.0
安徽,58214,霍邱,32.20,116.17,34.1,32.9
安徽,58215,寿县,32.26,116.47,26.9,25.7
安徽,58220,长丰,32.28,117.09,29.3,28.1
安徽,58221,蚌埠,32.51,117.18,28.0,26.8
安徽,58222,凤阳,32.51,117.33,25.6,24.6
安徽,58223,明光,32.48,117.59,32.6,31.4
安徽,58224,淮南,32.39,117.01,33.6,32.6
安徽,58225,定远,32.32,117.40,70.6,69.6
安徽,58234,来安,32.28,118.25,41.6,40.4
安徽,58236,滁州,32.21,118.15,34.7,33.5
安徽,58240,天长,32.41,119.01,22.5,21.3
安徽,58306,金寨,31.41,115.53,96.5,95.4
安徽,58311,六安,31.44,116.30,75.3,74.1
安徽,58314,霍山,31.24,116.19,87.6,86.4
安徽,58316,舒城,31.28,116.55,24.8,23.6
安徽,58317,岳西,30.52,116.22,435.4,434.2
安徽,58319,桐城,31.04,116.57,86.0,85.4
安徽,58320,肥西,31.44,117.08,22.8,21.8
安徽,58321,合肥,31.47,117.18,28.2,27.0
安徽,58323,肥东,31.53,117.28,26.0,25.0
安徽,58326,巢湖,31.35,117.50,31.9,30.9
安徽,58327,庐江,31.16,117.17,46.4,45.2
安徽,58329,无为,31.20,117.52,10.8,9.6
安徽,58330,含山,31.45,118.05,27.0,26.0
安徽,58331,和县,31.44,118.22,23.5,22.5
安徽,58334,芜湖,31.23,118.22,10.7,9.5
安徽,58335,当涂,31.34,118.31,24.4,23.2
安徽,58336,马鞍山,31.42,118.34,81.2,80.0
安徽,58337,繁昌,31.05,118.11,28.0,26.8
安徽,58338,芜湖县,31.09,118.35,18.3,17.1
安徽,58417,宿松,30.10,116.08,55.9,54.7
安徽,58429,铜陵,30.59,117.51,12.2,11
安徽,58431,南陵,30.54,118.19,40.2,39
安徽,58432,泾县,30.41,118.24,58.4,57.3
安徽,58433,宣城,30.56,118.45,32.2,31.2
安徽,58435,旌德,30.18,118.32,221.3,220.2
安徽,58436,宁国,30.37,118.59,88.5,87.3
安徽,58437,黄山,30.08,118.09,1841.4,1840.4
安徽,58441,广德,30.52,119.25,44.3,43.1
安徽,58442,郎溪,31.10,119.11,17.7,16.5
安徽,58520,祁门,29.51,117.43,143.1,142.0
安徽,58523,黟县,29.56,117.56,228.7,227.5
安徽,58530,歙县,29.52,118.26,170.1,168.7
安徽,58531,屯溪,29.43,118.17,143.9,142.7
安徽,58534,休宁,29.47,118.11,171.4,170.2
北京,54398,顺义,40.08,116.37,29.6,28.6
北京,54399,海淀,39.59,116.17,46.9,45.8
北京,54406,延庆,40.27,115.58,489.1,487.9
北京,54416,密云,40.23,116.52,73.0,71.8
北京,54419,怀柔,40.22,116.38,76.8,75.7
北京,54421,密云上甸子,40.39,117.07,294.3,293.3
北京,54424,平谷,40.10,117.07,33.3,32.1
北京,54431,通州,39.55,116.38,44.5,43.3
北京,54433,朝阳,39.57,116.30,36.3,35.3
北京,54499,昌平,40.13,116.13,77.4,76.2
北京,54501,斋堂,39.58,115.41,441.3,440.3
北京,54505,门头沟,39.56,116.06,99.1,98.0
北京,54511,北京,39.48,116.28,32.5,31.3
北京,54513,石景山,39.57,116.12,66.8,65.6
北京,54514,丰台,39.52,116.15,56.7,55.2
北京,54594,大兴,39.43,116.21,38.8,37.6
北京,54596,房山,39.46,116.12,49.9,48.9
北京,54597,霞云岭,39.44,115.44,408.7,407.7
福建,58724,光泽,27.32,117.19,269.2,268.2
福建,58725,邵武,27.20,117.28,218.9,218.0
福建,58730,武夷山,27.46,118.02,223.1,222.1
福建,58731,浦城,27.55,118.32,277.9,276.9
福建,58734,建阳,27.20,118.07,198.1,196.9
福建,58735,松溪,27.31,118.45,261.3,260.2
福建,58736,政和,27.23,118.49,263.6,262.4
福建,58737,建瓯,27.03,118.19,155.7,154.9
福建,58744,寿宁,27.27,119.25,816.9,815.9
福建,58747,周宁,27.09,119.21,900.3,899.3
福建,58748,福安,27.06,119.39,51.5,50.5
福建,58749,柘荣,27.14,119.53,685.1,684.1
福建,58754,福鼎,27.20,120.12,37.0,36.2
福建,58818,宁化,26.14,116.38,359.7,358.9
福建,58819,清流,26.11,116.49,338.0,336.9
福建,58820,泰宁,26.54,117.10,344.1,342.9
福建,58822,建宁,26.50,116.51,343.5,342.3
福建,58823,顺昌,26.48,117.48,176.4,175.2
福建,58824,明溪,26.24,117.09,358.4,357.4
福建,58826,沙县,26.24,117.48,121.5,120.6
福建,58828,三明,26.16,117.37,209.2,208.2
福建,58836,古田,26.35,118.44,362.7,361.5
福建,58837,尤溪,26.09,118.09,205.9,204.8
福建,58839,闽清,26.14,118.51,41.8,40.8
福建,58843,霞浦,26.53,120.01,57.8,56.8
福建,58844,闽侯,26.09,119.09,58.6,57.8
福建,58845,罗源,26.30,119.32,61.5,60.5
福建,58846,宁德,26.40,119.31,33.2,32.4
福建,58847,福州,26.05,119.17,84.8,84.0
福建,58848,连江,26.12,119.33,14.4,13.4
福建,58850,三沙,26.55,120.14,93.2,92.2
福建,58911,长汀,25.51,116.22,311.2,310.0
福建,58917,武平,25.05,116.06,308.2,307.0
福建,58918,上杭,25.03,116.25,198.7,198.0
福建,58923,大田,25.42,117.50,400.9,400.1
福建,58926,漳平,25.18,117.25,206.5,205.3
福建,58927,龙岩,25.03,117.01,377.0,376.0
福建,58928,华安,25.01,117.32,167.7,166.5
福建,58929,安溪,25.04,118.09,69.0,68.0
福建,58931,九仙山,25.43,118.06,1654.6,1653.5
福建,58932,永泰,25.52,118.56,86.6,85.6
福建,58934,永春,25.20,118.16,171.3,170.3
福建,58935,德化,25.29,118.14,522.4,521.4
福建,58938,秀屿,25.14,118.59,24.3,23.1
福建,58941,长乐,25.58,119.30,26.9,25.9
福建,58942,福清,25.43,119.23,40.3,39.2
福建,58944,平潭,25.31,119.47,33.4,32.4
福建,58946,莆田,25.27,119.00,81.9,81.1
福建,59113,永定,24.44,116.43,227.9,226.9
福建,59122,长泰,24.37,117.45,44.0,43.0
福建,59124,南靖,24.31,117.23,54.7,53.7
福建,59125,平和,24.23,117.18,109.5,108.5
福建,59127,龙海,24.26,117.50,32.8,32.1
福建,59129,漳浦,24.08,117.36,53.8,53.0
福建,59130,同安,24.44,118.09,31.7,30.8
福建,59131,南安,24.58,118.22,46.6,45.4
福建,59133,崇武,24.54,118.55,22.5,21.8
福建,59134,厦门,24.29,118.04,140.6,139.4
福建,59320,诏安,23.45,117.08,38.8,37.8
福建,59322,云霄,23.59,117.22,23.8,22.8
甘肃,52323,马鬃山,41.48,97.02,1771.6,1770.4
甘肃,52515,肃北,39.31,94.52,2138.6,2137.2
甘肃,52533,酒泉,39.46,98.29,1478.4,1477.2
甘肃,52546,高台,39.22,99.50,1333.4,1332.2
甘肃,52557,临泽,39.09,100.10,1454.9,1453.7
甘肃,52643,肃南,38.50,99.37,2313.0,2311.8
甘肃,52652,张掖,39.05,100.17,1462.3,1461.1
甘肃,52656,民乐,38.26,100.49,2282.6,2281.4
甘肃,52674,永昌,38.14,101.58,1978.1,1976.9
甘肃,52679,武威,37.55,102.40,1532.7,1531.5
甘肃,52681,民勤,38.38,103.05,1368.7,1367.5
甘肃,52784,古浪,37.28,102.54,2073.6,2072.4
甘肃,52787,乌鞘岭,37.12,102.52,3046.3,3045.1
甘肃,52797,景泰,37.11,104.03,1632.1,1630.9
甘肃,52881,天祝,36.59,103.11,2486.0,2484.8
甘肃,52884,皋兰,36.21,103.57,1669.7,1668.5
甘肃,52885,永登,36.45,103.15,2120.0,2118.8
甘肃,52895,靖远,36.34,104.41,1399.4,1398.2
甘肃,52896,白银,36.33,104.09,1739.9,1738.7
甘肃,52978,夏河,35.12,102.31,2930.6,2929.4
甘肃,52980,永靖,35.58,103.18,1649.2,1648.0
甘肃,52981,东乡,35.41,103.23,2422.2,2421
甘肃,52982,广河,35.29,103.33,1954.4,1953.2
甘肃,52983,榆中,35.52,104.09,1875.6,1874.4
甘肃,52984,临夏,35.35,103.11,1918.4,1917.2
甘肃,52985,和政,35.25,103.20,2164.0,2162.8
甘肃,52986,临洮,35.22,103.52,1895.0,1893.8
甘肃,52988,康乐,35.22,103.43,2017.0,2015.8
甘肃,52993,会宁,35.41,105.04,1740.6,1739.4
甘肃,52995,安定,35.35,104.37,1898.4,1897.2
甘肃,52996,华家岭,35.23,105.01,2451.8,2450.6
甘肃,52998,渭源,35.08,104.12,2112.2,2111.0
甘肃,53821,环县,36.34,107.18,1256.8,1255.6
甘肃,53829,庆城,35.59,107.54,1094.9,1093.7
甘肃,53906,静宁,35.31,105.43,1657.6,1656.4
甘肃,53908,通渭,35.13,105.14,1769.4,1768.2
甘肃,53915,崆峒,35.33,106.40,1347.8,1346.6
甘肃,53917,庄浪,35.13,106.04,1632.2,1631.0
甘肃,53923,西峰,35.44,107.38,1422.2,1421.0
甘肃,53924,灵台,35.04,107.37,967.8,966.6
甘肃,53925,镇原,35.41,107.11,1173.7,1172.5
甘肃,53926,泾川,35.21,107.21,1030.0,1028.8
甘肃,53927,华亭,35.12,106.37,1478.8,1477.6
甘肃,53928,崇信,35.18,107.01,1150.3,1149.1
甘肃,53930,华池,36.27,107.59,1272.2,1271.0
甘肃,53934,合水,35.47,107.59,1275.7,1274.2
甘肃,53935,正宁,35.29,108.24,1483.1,1481.9
甘肃,53937,宁县,35.31,107.55,980.6,979.4
甘肃,56071,碌曲,34.35,102.30,3106.9,3105.7
甘肃,56074,玛曲,34.00,102.05,3472.6,3471.4
甘肃,56080,合作,35.00,102.54,2911.2,2910.0
甘肃,56081,临潭,34.42,103.21,2811.4,2810.2
甘肃,56082,卓尼,34.35,103.30,2541.5,2540.3
甘肃,56084,迭部,34.04,103.14,2375.4,2374.2
甘肃,56091,漳县,34.51,104.28,1884.5,1883.3
甘肃,56092,陇西,35.00,104.39,1729.4,1728.2
甘肃,56093,岷县,34.26,104.01,2316.2,2315.0
甘肃,56094,舟曲,33.47,104.22,1401.2,1400.0
甘肃,56095,宕昌,34.02,104.23,1754.4,1753.2
甘肃,56096,武都,33.24,104.55,1080.3,1079.1
甘肃,56192,文县,32.57,104.40,1015.5,1014.3
甘肃,57001,甘谷,34.45,105.20,1273.1,1271.9
甘肃,57002,秦安,34.51,105.39,1217.3,1216.1
甘肃,57004,武山,34.44,104.53,1496.6,1495.4
甘肃,57006,天水,34.35,105.45,1142.8,1141.6
甘肃,57007,礼县,34.11,105.11,1405.8,1404.6
甘肃,57008,西和,34.02,105.18,1580.2,1579.0
甘肃,57011,清水,34.45,106.09,1379.4,1378.2
甘肃,57012,张家川,34.59,106.12,1665.7,1664.5
甘肃,57014,麦积,34.34,105.52,1086.4,1085.2
甘肃,57102,成县,33.45,105.43,971.2,970.0
甘肃,57105,康县,33.20,105.36,1222.4,1221.2
甘肃,57110,徽县,33.47,106.05,932.0,930.8
甘肃,57111,两当,33.55,106.18,962.6,961.4
广东,57988,乐昌,25.09,113.21,103.5,102.6
广东,57989,仁化,25.04,113.46,113.6,112.7
广东,57996,南雄,25.05,114.15,150.5,149.7
广东,59071,连南,24.44,112.17,175.1,174.4
广东,59072,连州,24.48,112.22,132.2,131.5
广东,59074,连山,24.34,112.09,301.4,300.6
广东,59075,阳山,24.29,112.38,71.3,70.5
广东,59081,乳源,24.47,113.17,131.9,131.1
广东,59082,韶关,24.40,113.36,122.3,121.3
广东,59087,佛冈,23.53,113.31,98.2,97.2
广东,59088,英德,24.11,113.25,75.3,74.5
广东,59090,始兴,24.57,114.04,104.1,103.2
广东,59094,翁源,24.21,114.07,184.6,184.1
广东,59096,连平,24.22,114.29,215.7,214.8
广东,59097,新丰,24.03,114.12,199.3,198.6
广东,59099,和平,24.27,114.56,174.6,173.7
广东,59106,平远,24.35,115.54,153.5,152.6
广东,59107,龙川,24.07,115.17,180.4,179.6
广东,59109,兴宁,24.09,115.44,124.5,123.6
广东,59114,蕉岭,24.39,116.10,136.4,135.7
广东,59116,大埔,24.20,116.42,81.9,81.0
广东,59117,梅县,24.17,116.04,116.9,116
广东,59264,封开,23.24,111.30,84.3,83.6
广东,59268,郁南,23.15,111.32,30.1,29.2
广东,59269,德庆,23.10,111.47,47.8,47.2
广东,59270,怀集,23.55,112.11,85.6,84.8
广东,59271,广宁,23.38,112.26,58.2,57.3
广东,59276,四会,23.21,112.39,41.0,40.1
广东,59278,高要,23.02,112.27,41.9,41.0
广东,59279,三水,23.11,112.52,25.0,24.1
广东,59280,清远,23.43,113.05,79.9,79.2
广东,59284,花都,23.25,113.14,39.8,38.9
广东,59285,从化,23.34,113.36,39.2,38.3
广东,59287,广州,23.13,113.29,71.5,70.7
广东,59288,南海,23.09,113.01,30.3,29.5
广东,59289,东莞,22.58,113.44,56.8,56.0
广东,59290,龙门,23.47,114.15,86.0,85.5
广东,59293,河源,23.48,114.44,71.6,70.8
广东,59294,增城,23.20,113.50,31.5,30.8
广东,59297,博罗,23.11,114.17,17.9,17.0
广东,59298,惠阳,23.04,114.22,109.3,108.5
广东,59303,五华,23.55,115.45,136.8,135.9
广东,59304,紫金,23.38,115.11,177.6,176.8
广东,59306,揭西,23.27,115.51,81.5,80.8
广东,59310,丰顺,23.46,116.11,46.2,45.3
广东,59312,潮州,23.40,116.42,61.5,60.7
广东,59313,饶平,23.41,116.59,45.5,44.7
广东,59314,普宁,23.18,116.08,29.8,29.0
广东,59315,揭阳,23.35,116.24,44.0,43.2
广东,59316,汕头,23.24,116.41,3.9,2.9
广东,59317,惠来,23.02,116.18,15.3,14.4
广东,59318,潮阳,23.16,116.35,6.7,5.9
广东,59319,澄海,23.26,116.50,4.6,4.1
广东,59324,南澳,23.26,117.02,8.0,7.2
广东,59456,信宜,22.21,110.56,142.2,141.4
广东,59462,罗定,22.42,111.36,60.9,60.0
广东,59469,阳春,22.10,111.47,38.6,37.7
广东,59470,新兴,22.42,112.12,58.2,57.4
广东,59471,云浮,22.56,112.03,102.6,101.8
广东,59473,鹤山,22.46,112.58,20.6,19.8
广东,59475,开平,22.24,112.39,28.5,27.7
广东,59476,新会,22.32,113.02,37.1,36.3
广东,59477,恩平,22.16,112.14,68.5,68.0
广东,59478,台山,22.15,112.47,33.7,32.7
广东,59480,顺德,22.51,113.15,22.4,21.4
广东,59481,番禺,22.56,113.19,13.2,12.3
广东,59485,中山,22.30,113.24,34.5,33.7
广东,59487,斗门,22.14,113.18,24.3,23.4
广东,59488,珠海,22.17,113.34,52.3,51.5
广东,59492,惠东,22.58,114.44,48.2,47.4
广东,59493,深圳,22.32,114.00,63.9,63.0
广东,59500,海丰,22.58,115.19,7.3,6.5
广东,59501,汕尾,22.48,115.22,17.7,16.7
广东,59502,陆丰,22.57,115.39,6.4,5.6
广东,59650,遂溪,21.24,110.15,32.3,29.7
广东,59653,高州,21.56,110.51,32.0,31.3
广东,59654,廉江,21.38,110.18,30.0,29.3
广东,59655,化州,21.39,110.37,33.0,32.2
广东,59656,吴川,21.24,110.49,28.0,27.3
广东,59658,湛江,21.09,110.18,54.1,53.3
广东,59659,茂名,21.45,110.55,34.1,33.3
广东,59663,阳江,21.50,111.58,90.8,89.9
广东,59664,电白,21.32,110.59,32.4,31.6
广东,59673,上川岛,21.44,112.46,22.3,21.5
广东,59750,雷州,20.58,110.04,34.1,33.3
广东,59754,徐闻,20.20,110.11,56.7,55.9
广西,57859,资源,26.02,110.38,409.6,408.4
广西,57927,天峨,24.58,107.11,288.5,287.3
广西,57941,三江,25.47,109.36,198.4,197.3
广西,57942,龙胜,25.48,110.00,269.2,268.0
广西,57947,融安,25.13,109.24,122.5,121.3
广西,57948,融水,25.05,109.15,123.9,122.7
广西,57949,永福,24.59,110.00,158.0,156.8
广西,57954,临桂,25.14,110.11,158.8,157.6
广西,57955,兴安,25.37,110.40,225.2,224.0
广西,57956,灵川,25.25,110.19,169.1,167.9
广西,57957,桂林,25.19,110.18,165.6,164.4
广西,57960,全州,25.56,111.04,196.8,195.6
广西,57964,灌阳,25.30,111.09,264.3,263.1
广西,59001,隆林,24.47,105.20,673.4,672.2
广西,59004,西林,24.30,105.06,727.1,725.9
广西,59012,乐业,24.47,106.33,973.4,972.1
广西,59015,凌云,24.21,106.34,439.1,437.9
广西,59017,田林,24.16,106.16,279.4,278.2
广西,59021,凤山,24.33,107.02,510.6,509.4
广西,59023,河池,24.42,108.02,261.2,260.2
广西,59025,东兰,24.32,107.23,250.0,248.8
广西,59027,巴马,24.08,107.15,256.1,254.9
广西,59031,环江,24.49,108.16,343.5,342.3
广西,59034,宜州,24.29,108.40,151.9,150.7
广西,59037,都安,23.56,108.06,172.0,170.8
广西,59038,忻城,24.04,108.39,139.7,138.5
广西,59041,柳城,24.39,109.15,109.4,108.3
广西,59044,沙塘,24.28,109.23,98.7,97.5
广西,59045,鹿寨,24.29,109.45,95.9,94.7
广西,59046,柳州,24.21,109.24,97.8,96.8
广西,59047,柳江,24.15,109.20,102.1,100.9
广西,59052,恭城,24.50,110.49,170.8,169.6
广西,59053,平乐,24.37,110.40,107.0,105.8
广西,59055,荔浦,24.30,110.24,166.9,165.7
广西,59057,金秀,24.08,110.11,832.1,830.9
广西,59058,蒙山,24.12,110.31,183.1,181.9
广西,59059,昭平,24.11,110.48,107.0,105.8
广西,59065,贺州,24.25,111.30,149.9,148.7
广西,59209,那坡,23.25,105.50,795.1,794.1
广西,59211,百色,23.54,106.36,175.9,174.7
广西,59215,德保,23.20,106.38,681.2,680
广西,59218,靖西,23.08,106.25,741.1,739.9
广西,59224,田东,23.36,107.07,112.4,111.2
广西,59227,天等,23.07,107.08,455.4,454.2
广西,59228,平果,23.19,107.35,110.0,108.8
广西,59229,隆安,23.10,107.42,126.9,125.7
广西,59230,马山,23.43,108.10,169.2,168.0
广西,59235,上林,23.26,108.37,116.8,115.5
广西,59237,武鸣,23.10,108.17,112.8,111.7
广西,59238,宾阳,23.13,108.48,123.7,122.5
广西,59241,象州,23.58,109.41,91.7,90.5
广西,59242,来宾,23.45,109.14,86.1,84.9
广西,59246,武宣,23.36,109.40,71.2,70.0
广西,59255,平南,23.33,110.23,33.7,32.5
广西,59256,藤县,23.22,110.55,55.9,54.7
广西,59265,梧州,23.29,111.18,116.0,114.8
广西,59266,苍梧,23.25,111.14,43.7,42.5
广西,59419,凭祥,22.06,106.45,243.4,242.5
广西,59421,大新,22.50,107.12,256.3,255.1
广西,59429,上思,22.11,108.01,217.2,216.0
广西,59431,南宁,22.38,108.13,122.6,121.6
广西,59432,南宁城区,22.48,108.24,195.6,194.6
广西,59435,邕宁,22.46,108.29,75.9,74.7
广西,59441,横县,22.42,109.15,79.7,78.5
广西,59446,灵山,22.25,109.18,67.8,66.6
广西,59448,浦北,22.16,109.33,70.8,69.6
广西,59449,博白,22.18,109.59,87.1,85.9
广西,59451,北流,22.42,110.21,99.4,98.1
广西,59452,容县,22.50,110.32,132.7,131.5
广西,59454,岑溪,22.57,111.00,203.2,202.0
广西,59457,陆川,22.19,110.16,122.8,121.6
广西,59632,钦州,21.57,108.37,5.8,4.8
广西,59635,防城港,21.37,108.21,32.5,31.3
广西,59640,合浦,21.40,109.11,6.6,5.5
广西,59644,北海,21.27,109.08,14.0,12.8
贵州,56598,赫章,27.08,104.44,1538.1,1535.1
贵州,56691,威宁,26.52,104.17,2238.6,2237.5
贵州,56792,普安,25.47,104.58,1648.5,1649.4
贵州,56793,盘县,25.43,104.28,1796.0,1800
贵州,57606,桐梓,28.08,106.50,972.7,972
贵州,57623,道真,28.53,107.36,684.6,685.6
贵州,57625,正安,28.33,107.27,678.2,679.7
贵州,57634,务川,28.31,107.53,658.0,660.3
贵州,57636,沿河,28.34,108.30,335.4,334.6
贵州,57637,德江,28.15,108.06,630.5,629.5
贵州,57647,松桃,28.09,109.11,406.9,406.1
贵州,57707,毕节,27.18,105.17,1511.5,1510.6
贵州,57708,大方,27.09,105.36,1701.2,1700.0
贵州,57710,仁怀,27.48,106.24,891.0,890.3
贵州,57714,金沙,27.28,106.14,943.0,942
贵州,57717,遵义县,27.32,106.50,975.0,974.1
贵州,57718,息烽,27.06,106.43,1113.2,1112.1
贵州,57719,开阳,27.04,106.58,1280.7,1275.6
贵州,57722,湄潭,27.46,107.28,792.9,792.2
贵州,57723,凤冈,27.59,107.43,709.1,710.2
贵州,57728,瓮安,27.04,107.28,1097.9,1096.7
贵州,57729,余庆,27.14,107.53,621.3,622.1
贵州,57731,思南,27.57,108.15,417.7,416.8
贵州,57732,印江,28.01,108.24,458.0,456.5
贵州,57734,石阡,27.34,108.14,468.5,467.5
贵州,57735,岑巩,27.11,108.49,405.3,404.3
贵州,57736,江口,27.42,108.51,370.7,369.2
贵州,57737,施秉,27.02,108.07,548.3,547.3
贵州,57738,镇远,27.03,108.25,517.0,516.3
贵州,57739,玉屏,27.14,108.55,391.2,394.8
贵州,57741,铜仁,27.43,109.11,283.5,282.7
贵州,57742,万山,27.31,109.12,885.3,884.3
贵州,57800,纳雍,26.46,105.22,1458.6,1457.1
贵州,57803,黔西,27.02,106.01,1234.5,1231.4
贵州,57805,织金,26.41,105.46,1320.8,1319.3
贵州,57806,安顺,26.15,105.54,1430.5,1431.1
贵州,57807,六枝,26.12,105.28,1363.2,1361.9
贵州,57808,普定,26.19,105.45,1275.7,1274.5
贵州,57809,镇宁,26.04,105.45,1252.0,1251.0
贵州,57811,修文,26.50,106.36,1296.7,1296.7
贵州,57814,平坝,26.25,106.16,1299.2,1298.2
贵州,57816,贵阳,26.35,106.44,1224.9,1223.8
贵州,57821,福泉,26.42,107.30,926.5,925
贵州,57822,黄平,26.54,107.54,836.5,835
贵州,57824,贵定,26.35,107.14,1005.7,1001
贵州,57825,凯里,26.36,107.59,721.2,720.3
贵州,57827,都匀,26.19,107.32,970.2,969.1
贵州,57828,麻江,26.30,107.35,983.9,983.8
贵州,57829,丹寨,26.12,107.48,964.2,963.2
贵州,57832,三穗,26.58,108.40,627.8,626.9
贵州,57834,台江,26.41,108.18,643.1,641.3
贵州,57835,剑河,26.43,108.26,528.4,527.2
贵州,57837,雷山,26.24,108.04,840.0,839.0
贵州,57839,黎平,26.14,109.09,569.4,568.8
贵州,57840,天柱,26.54,109.12,402.4,401.4
贵州,57844,锦屏,26.41,109.11,344.0,343.0
贵州,57900,晴隆,25.50,105.13,1553.6,1552.7
贵州,57902,兴仁,25.26,105.11,1379.3,1378.5
贵州,57903,关岭,25.56,105.36,1138.4,1142.0
贵州,57905,贞丰,25.24,105.38,1063.8,1063.3
贵州,57906,望谟,25.11,106.05,567.0,566.8
贵州,57907,兴义,25.05,104.54,1300.7,1299.6
贵州,57908,安龙,25.07,105.29,1393.5,1394.5
贵州,57909,册亨,24.59,105.49,584.8,584.8
贵州,57910,紫云,25.46,106.05,1198.8,1197.6
贵州,57911,白云,26.40,106.39,1324.2,1323.0
贵州,57912,惠水,26.08,106.38,992.1,990.9
贵州,57913,龙里,26.27,106.59,1094.7,1093.7
贵州,57914,花溪,26.25,106.40,1149.8,1149.0
贵州,57915,乌当,26.38,106.46,1104.9,1104.0
贵州,57916,罗甸,25.26,106.46,440.1,440.3
贵州,57921,平塘,25.50,107.19,710.2,708.7
贵州,57922,独山,25.50,107.33,1015.5,1013.3
贵州,57923,三都,25.59,107.52,418.5,419.0
贵州,57926,荔波,25.25,107.53,432.9,428.7
贵州,57932,榕江,25.58,108.32,288.8,285.7
贵州,57936,从江,25.45,108.55,259.1,258.1
海南,59757,琼山,20.00,110.22,10.7,9.9
海南,59758,海口,20.00,110.15,64.7,63.5
海南,59838,东方,19.06,108.37,8.8,7.6
海南,59842,临高,19.54,109.41,32.5,31.7
海南,59843,澄迈,19.44,110.00,36.3,31.4
海南,59845,儋州,19.31,109.35,170.2,169.0
海南,59847,昌江,19.16,109.03,101.1,98.1
海南,59848,白沙,19.14,109.26,219.3,215.6
海南,59849,琼中,19.02,109.50,253.0,250.9
海南,59851,定安,19.40,110.20,54.5,53.3
海南,59854,屯昌,19.22,110.06,119.1,118.3
海南,59855,琼海,19.14,110.28,25.2,24.0
海南,59856,文昌,19.37,110.45,26.7,21.7
海南,59941,五指山,18.46,109.31,327.2,328.5
海南,59945,保亭,18.39,109.42,65.0,68.6
海南,59951,万宁,18.48,110.20,41.1,39.9
河北,53392,康保,41.51,114.36,1423.5,1422.4
河北,53397,尚义,41.06,113.59,1377.7,1376.5
河北,53399,张北,41.09,114.42,1394.4,1393.3
河北,53491,怀安,40.40,114.23,838.8,837.7
河北,53492,阳原,40.06,114.09,938.7,937.6
河北,53498,宣化,40.34,115.02,630.5,629.3
河北,53499,万全,40.46,114.44,756.2,755.2
河北,53593,蔚县,39.50,114.34,910.5,909.5
河北,53596,顺平,38.51,115.08,53.4,52.2
河北,53599,涞源,39.22,114.41,885.6,884.4
河北,53680,灵寿,38.18,114.23,110.1,108.9
河北,53682,曲阳,38.38,114.41,105.3,104.1
河北,53688,行唐,38.25,114.33,101.8,100.3
河北,53689,晋州,38.01,115.04,43.5,42.4
河北,53690,阜平,38.51,114.11,283.1,281.9
河北,53691,正定,38.09,114.34,72.1,71.0
河北,53692,唐县,38.44,114.59,67.6,66.5
河北,53693,井陉,38.02,114.08,256.6,255.5
河北,53694,平山,38.16,114.13,132.0,131.0
河北,53695,新乐,38.21,114.41,72.0,70.8
河北,53696,定州,38.33,115.01,42.3,41.4
河北,53697,藁城,38.02,114.50,54.6,53.5
河北,53699,无极,38.11,114.57,46.6,45.4
河北,53773,临漳,36.20,114.37,65.8,64.6
河北,53781,沙河,36.52,114.28,69.0,67.9
河北,53784,赵县,37.45,114.47,39.6,38.5
河北,53785,柏乡,37.31,114.40,36.2,35.0
河北,53789,栾城,37.53,114.38,54.0,52.9
河北,53790,高邑,37.38,114.36,45.7,44.5
河北,53791,元氏,37.46,114.31,67.5,66.4
河北,53792,临城,37.27,114.29,114.2,113.0
河北,53794,隆尧,37.21,114.45,34.3,33.1
河北,53795,赞皇,37.39,114.22,138.5,137.4
河北,53796,宁晋,37.37,114.53,31.8,30.6
河北,53797,内邱,37.17,114.31,75.1,73.9
河北,53798,邢台,37.04,114.30,78.5,77.3
河北,53799,巨鹿,37.14,114.59,27.1,25.9
河北,53883,任县,37.08,114.42,37.7,36.5
河北,53886,涉县,36.34,113.40,471.6,470.4
河北,53890,武安,36.40,114.06,281.3,280.1
河北,53891,南和,37.01,114.41,44.2,43.0
河北,53892,邯郸,36.37,114.28,67.7,66.6
河北,53893,曲周,36.46,114.57,40.8,39.6
河北,53894,峰峰,36.24,114.12,150.5,149.3
河北,53895,永年,36.47,114.30,61.8,60.6
河北,53896,魏县,36.21,114.57,51.3,50.1
河北,53897,磁县,36.23,114.23,70.9,69.7
河北,53899,广平,36.29,114.58,49.7,48.5
河北,53980,肥乡,36.33,114.48,51.3,50.2
河北,53996,成安,36.27,114.39,59.0,57.9
河北,54301,沽源,41.40,115.40,1413.1,1412.0
河北,54304,崇礼,40.57,115.16,1241.1,1239.8
河北,54308,丰宁,41.12,116.38,736.3,735.1
河北,54311,围场,41.58,117.46,893.8,892.7
河北,54318,隆化,41.19,117.44,562.8,561.6
河北,54319,平泉,41.00,118.40,503.3,502.3
河北,54401,张家口,40.46,114.55,774.1,772.8
河北,54404,赤城,40.53,115.50,868.7,867.6
河北,54405,怀来,40.25,115.30,572.1,570.9
河北,54408,涿鹿,40.23,115.13,530.7,529.6
河北,54420,滦平,40.56,117.20,530.1,529.0
河北,54423,承德,40.58,117.55,423.5,422.3
河北,54425,兴隆,40.24,117.28,634.4,633.2
河北,54429,遵化,40.12,117.57,56.1,54.9
河北,54430,承德县,40.46,118.09,270.3,269.2
河北,54432,宽城,40.36,118.29,305.8,304.7
河北,54434,迁西,40.10,118.20,132.8,131.6
河北,54436,青龙,40.25,118.57,255.4,254.3
河北,54437,滦南,39.30,118.37,19.3,18.3
河北,54438,卢龙,39.53,118.53,66.1,65.0
河北,54439,迁安,40.01,118.43,52.0,50.9
河北,54449,秦皇岛,39.51,119.31,3.5,2.4
河北,54502,涿州,39.29,116.02,30.4,29.3
河北,54503,容城,39.04,115.49,14.0,12.8
河北,54506,高碑店,39.19,115.57,25.7,24.6
河北,54507,易县,39.20,115.31,50.8,49.3
河北,54510,大厂,39.55,116.57,19.3,18.3
河北,54512,固安,39.25,116.17,22.6,21.4
河北,54515,廊坊,39.30,116.42,14.8,13.7
河北,54518,霸州,39.10,116.24,10.4,8.9
河北,54519,永清,39.18,116.29,13.4,12.2
河北,54520,三河,39.58,117.05,19.3,18.1
河北,54521,香河,39.46,116.59,14.2,13.0
河北,54522,玉田,39.53,117.44,15.6,14.4
河北,54531,滦县,39.44,118.43,44.1,43.0
河北,54532,丰润,39.48,118.05,32.8,31.6
河北,54533,丰南,39.35,118.06,10.1,8.9
河北,54534,唐山,39.39,118.06,24.5,23.2
河北,54535,曹妃甸,39.17,118.28,4.4,3.2
河北,54539,乐亭,39.26,118.53,9.7,8.5
河北,54540,昌黎 ,39.44,119.12,18.7,17.6
河北,54541,抚宁,39.54,119.14,25.4,24.3
河北,54601,徐水,38.59,115.39,14.3,13.1
河北,54602,保定,38.44,115.29,17.9,16.8
河北,54603,高阳,38.43,115.46,11.2,10.0
河北,54604,安国,38.25,115.20,30.8,29.6
河北,54605,安新,38.56,115.56,5.6,4.4
河北,54606,饶阳,38.14,115.44,20.2,19.0
河北,54607,望都,38.43,115.07,46.2,45.0
河北,54608,深州,38.00,115.33,27.3,26.1
河北,54609,安平,38.14,115.35,23.6,22.4
河北,54610,任丘,38.44,116.06,9.2,8.1
河北,54611,满城,38.56,115.19,45.9,44.8
河北,54612,文安,38.51,116.27,5.4,4.3
河北,54613,大城,38.42,116.37,8.0,6.9
河北,54614,河间,38.25,116.03,12.4,10.9
河北,54615,青县,38.35,116.51,9.3,8.0
河北,54616,沧州,38.21,116.51,9.1,8.0
河北,54617,献县,38.11,116.07,14.4,13.2
河北,54618,泊头,38.05,116.33,14.3,13.2
河北,54620,蠡县,38.29,115.34,19.7,18.5
河北,54621,深泽,38.11,115.11,39.3,38.1
河北,54624,黄骅,38.24,117.19,6.0,4.5
河北,54626,肃宁,38.25,115.49,15.1,13.9
河北,54627,盐山,38.02,117.14,9.4,8.2
河北,54628,海兴,38.09,117.29,7.6,6.4
河北,54631,广宗,37.04,115.09,33.6,32.4
河北,54632,平乡,37.04,115.02,35.2,34.0
河北,54633,新河,37.31,115.14,27.5,26.3
河北,54636,雄县,39.01,116.06,12.2,11.1
河北,54640,鸡泽,36.55,114.52,37.2,36.0
河北,54644,孟村,38.03,117.07,11.7,10.5
河北,54700,武强,38.02,115.56,17.4,16.2
河北,54701,辛集,37.56,115.12,36.9,35.9
河北,54702,衡水,37.44,115.42,21.9,20.7
河北,54703,武邑,37.48,115.53,22.5,21.3
河北,54704,冀州,37.31,115.34,26,24.8
河北,54705,南宫,37.22,115.23,28.6,27.4
河北,54706,清河,37.05,115.40,32.7,31.5
河北,54707,故城,37.21,115.59,28.6,27.4
河北,54708,枣强,37.30,115.44,24.7,23.6
河北,54710,阜城,37.52,116.10,19.8,18.6
河北,54711,景县,37.42,116.17,19.5,18.3
河北,54713,东光,37.53,116.32,15.6,14.4
河北,54717,吴桥,37.38,116.24,18.3,17.1
河北,54719,南皮,38.02,116.41,12.3,11.1
河北,54800,威县,37.00,115.15,34.5,33.3
河北,54801,临西,36.51,115.29,36.5,35.3
河北,54804,大名,36.18,115.08,46.0,44.9
河北,54809,馆陶,36.33,115.17,42.5,41.3
河北,54820,邱县,36.49,115.10,37.9,36.7
河南,53889,林州,36.04,113.49,308.6,306.8
河南,53898,安阳,36.03,114.08,195.7,194.8
河南,53972,沁阳,35.03,112.54,118.5,117.5
河南,53974,淇县,35.37,114.14,71.3,70.4
河南,53978,济源,35.05,112.38,140.9,140.1
河南,53979,博爱,35.09,113.05,121.1,120.0
河南,53982,焦作,35.14,113.16,113.5,112.0
河南,53983,封丘,35.02,114.25,70.8,69.6
河南,53984,修武,35.14,113.28,83.7,82.7
河南,53985,辉县,35.30,113.49,142.2,140.7
河南,53986,新乡,35.19,113.53,74.2,73.2
河南,53987,武陟,35.06,113.21,95.5,94.5
河南,53989,原阳,35.05,113.59,76.9,75.9
河南,53988,获嘉,35.16,113.40,78.8,77.6
河南,53991,汤阴,35.55,114.20,93.9,93
河南,53992,浚县,35.39,114.31,59.2,58.2
河南,53993,内黄,35.56,114.55,52.4,51.6
河南,53994,卫辉,35.23,114.04,71.2,70.0
河南,53995,滑县,35.33,114.30,64.5,62.5
河南,53997,延津,35.09,114.11,72.3,71.1
河南,53998,长垣,35.12,114.39,62.5,61.6
河南,54817,台前,35.59,115.52,43.1,42.1
河南,54900,濮阳,35.42,115.01,54.7,53.7
河南,54901,南乐,36.05,115.10,48.5,47.5
河南,54902,清丰,35.54,115.07,50.5,49.5
河南,54903,范县,35.51,115.29,50.6,45.7
河南,57051,三门峡,34.48,111.12,410.9,409.9
河南,57056,灵宝,34.32,110.51,485.5,484.5
河南,57063,渑池,34.46,111.46,523.6,523.6
河南,57066,洛宁,34.24,111.40,408.7,408.2
河南,57070,新安,34.44,112.07,359.5,364.0
河南,57071,孟津,34.49,112.26,333.2,333.3
河南,57072,孟州,34.55,112.45,128.5,127.5
河南,57074,伊川,34.25,112.24,246.9,252.2
河南,57075,汝州,34.10,112.52,204.3,203.1
河南,57076,偃师,34.44,112.47,190.1,189.5
河南,57078,汝阳,34.09,112.28,334.0,336.5
河南,57079,温县,34.57,113.02,106.9,106.4
河南,57080,巩义,34.44,112.58,166.1,165.2
河南,57081,荥阳,34.48,113.26,141.9,140.9
河南,57082,登封,34.28,113.01,428.4,427.1
河南,57083,郑州,34.43,113.39,111.6,110.4
河南,57084,嵩山,34.30,113.03,1179.0,1178.4
河南,57085,新密,34.32,113.20,264.8,259.9
河南,57086,新郑,34.23,113.43,116.8,116.6
河南,57087,长葛,34.16,113.44,105.0,104.1
河南,57088,禹州,34.09,113.30,117.7,116.1
河南,57089,许昌,34.04,113.56,68.2,67.2
河南,57090,中牟,34.43,113.58,80.2,78.1
河南,57091,开封,34.47,114.18,74.8,73.7
河南,57093,兰考,34.51,114.49,74.0,73.3
河南,57094,尉氏,34.24,114.13,68.5,67.4
河南,57095,鄢陵,34.07,114.09,62.2,61.1
河南,57096,杞县,34.32,114.47,60.7,59.7
河南,57098,扶沟,34.05,114.24,59.3,58.3
河南,57099,太康,34.04,114.51,53.6,52.6
河南,57156,西峡,33.18,111.30,251.3,250.3
河南,57162,嵩县,34.08,112.04,439.7,440.7
河南,57169,内乡,33.03,111.52,160.0,159.1
河南,57173,鲁山,33.45,112.53,146.8,145.7
河南,57175,镇平,33.03,112.14,192.2,191.4
河南,57176,南召,33.29,112.25,230.4,231.1
河南,57177,舞钢,33.20,113.32,91.3,89.8
河南,57178,南阳,33.06,112.29,181.6,180.6
河南,57179,方城,33.17,113.00,161.6,160.4
河南,57180,郏县,33.59,113.12,118.6,117.5
河南,57181,宝丰,33.53,113.03,137.4,136.4
河南,57182,襄城,33.51,113.31,81.4,80.4
河南,57183,临颍,33.48,113.55,65.2,60.0
河南,57184,叶县,33.38,113.18,98.5,97.5
河南,57185,舞阳,33.27,113.35,92.1,91.1
河南,57186,漯河,33.36,114.03,59.8,58.7
河南,57187,社旗,33.04,112.56,119.3,118.0
河南,57188,西平,33.22,114.02,56.8,55.9
河南,57189,遂平,33.08,113.57,65.5,64.6
河南,57190,泛区农试,33.45,114.24,51.6,50.5
河南,57191,通许,34.29,114.29,64.2,63.4
河南,57192,淮阳,33.44,114.51,46.6,45.5
河南,57193,西华,33.47,114.31,53.6,52.6
河南,57194,上蔡,33.17,114.16,60.9,59.8
河南,57195,川汇区,33.37,114.37,47.6,46.6
河南,57196,项城,33.28,114.52,42.8,42.0
河南,57197,汝南,32.58,114.21,51.1,50.1
河南,57198,商水,33.30,114.34,45.6,44.6
河南,57261,淅川,33.07,111.31,234.5,233.0
河南,57271,新野,32.31,112.23,88.7,87.7
河南,57273,唐河,32.41,112.51,110.5,109.5
河南,57274,邓州,32.42,112.07,108.8,107.6
河南,57281,泌阳,32.42,113.18,143.1,142.2
河南,57285,桐柏,32.23,113.25,154.0,153.0
河南,57290,驻马店,32.56,113.55,107.2,106.2
河南,57292,平舆,32.58,114.38,45.3,44.4
河南,57293,新蔡,32.44,114.59,39.1,38.0
河南,57294,确山,32.50,114.01,84.6,83.6
河南,57295,正阳,32.37,114.21,80.2,78.5
河南,57296,息县,32.21,114.44,50.1,48.9
河南,57297,信阳,32.08,114.03,115.4,114.5
河南,57298,罗山,32.13,114.33,56.2,55.4
河南,57299,光山,32.01,114.54,50.6,49.4
河南,57390,鸡公山,31.48,114.04,734.7,733.5
河南,57396,新县,31.38,114.51,129.7,128.7
河南,58001,睢县,34.26,115.06,56.9,56.3
河南,58004,民权,34.39,115.09,61.6,60.6
河南,58005,商丘,34.27,115.40,51.1,50.1
河南,58006,虞城,34.23,115.53,50.6,46.3
河南,58007,柘城,34.04,115.18,53.2,47.2
河南,58008,宁陵,34.28,115.20,59.2,54.4
河南,58017,夏邑,34.15,116.08,42.0,41.0
河南,58100,郸城,33.39,115.10,42.4,41.4
河南,58101,鹿邑,33.52,115.29,42.8,41.3
河南,58104,沈丘,33.24,115.04,42.5,41.2
河南,58111,永城,33.58,116.27,33.5,32.5
河南,58205,淮滨,32.28,115.26,36.0,34.9
河南,58207,潢川,32.10,115.03,44.0,42.8
河南,58208,固始,32.10,115.37,43.9,42.9
河南,58301,商城,31.49,115.23,92.9,92.1
黑龙江,50136,漠河,52.58,122.31,439.7,438.5
黑龙江,50137,北极村,53.28,122.22,297.3,296.0
黑龙江,50246,塔河,52.21,124.43,363.0,361.9
黑龙江,50247,呼中,52.02,123.34,514.9,514.5
黑龙江,50349,新林,51.40,124.24,502.2,501.5
黑龙江,50353,呼玛,51.44,126.38,175.6,173.9
黑龙江,50442,加格达奇,50.24,124.07,373.4,371.7
黑龙江,50468,爱辉,50.15,127.27,167.4,166.4
黑龙江,50557,嫩江,49.10,125.14,243.0,242.2
黑龙江,50564,孙吴,49.26,127.21,236.0,234.5
黑龙江,50566,逊克,49.33,128.28,120.0,116.0
黑龙江,50646,讷河,48.29,124.51,204.4,202.8
黑龙江,50655,五大连池,48.30,126.11,267.7,266.8
黑龙江,50656,北安,48.15,126.30,276.9,278.4
黑龙江,50658,克山,48.03,125.53,239.8,236.0
黑龙江,50659,克东,48.02,126.15,293.1,291.8
黑龙江,50673,嘉荫,48.53,130.24,92.3,90.4
黑龙江,50674,乌伊岭,48.34,129.26,404.9,404.5
黑龙江,50739,龙江,47.20,123.11,191.6,190.0
黑龙江,50741,甘南,47.56,123.30,186.3,185.2
黑龙江,50742,富裕,47.48,124.29,163.8,162.7
黑龙江,50745,齐齐哈尔,47.23,123.55,148.5,147.1
黑龙江,50749,林甸,47.11,124.50,159.9,154.6
黑龙江,50750,依安,47.54,125.18,228.8,226.4
黑龙江,50755,拜泉,47.36,126.06,232.4,230.7
黑龙江,50756,海伦,47.27,126.58,240.4,239.2
黑龙江,50758,明水,47.11,125.54,248.3,246.0
黑龙江,50767,绥棱,47.14,127.06,204.0,202.7
黑龙江,50772,五营,48.06,129.14,299.1,288.0
黑龙江,50774,伊春,47.42,128.50,259.1,264.8
黑龙江,50775,鹤岗,47.20,130.12,183.3,182.3
黑龙江,50776,萝北,47.34,130.50,84.8,83.3
黑龙江,50778,同江,47.40,132.32,59.1,57.5
黑龙江,50779,抚远,48.22,134.17,41.2,40.0
黑龙江,50787,绥滨,47.19,131.50,63.7,62.7
黑龙江,50788,富锦,47.14,131.59,68.4,66.4
黑龙江,50842,杜蒙,46.50,124.25,148.9,145.4
黑龙江,50844,泰来,46.24,123.27,139.7,138.8
黑龙江,50850,大庆,46.34,125.08,148.4,147.2
黑龙江,50851,青冈,46.41,126.05,209.2,207.4
黑龙江,50852,望奎,46.50,126.27,170.4,169.1
黑龙江,50853,北林,46.37,126.58,181.2,179.6
黑龙江,50854,安达,46.23,125.19,150.4,149.3
黑龙江,50858,肇东,46.04,125.56,136.0,135.0
黑龙江,50859,兰西,46.17,126.17,169.9,169.3
黑龙江,50861,庆安,46.53,127.29,183.2,182.4
黑龙江,50862,铁力,46.59,127.59,207.0,206
黑龙江,50867,巴彦,46.05,127.21,134.8,134.1
黑龙江,50871,汤原,46.44,129.53,96.4,95.1
黑龙江,50873,佳木斯,46.47,130.18,83.1,82.0
黑龙江,50877,依兰,46.18,129.35,101.6,100.1
黑龙江,50878,桦川,47.00,130.43,80.2,78.2
黑龙江,50879,桦南,46.13,130.33,190.7,187.0
黑龙江,50880,集贤,46.44,131.07,104.7,102.3
黑龙江,50884,双鸭山,46.38,131.09,178.0,175.3
黑龙江,50888,宝清,46.19,132.11,83.5,83.0
黑龙江,50892,饶河,46.48,134.00,57.2,54.4
黑龙江,50950,肇州,45.42,125.15,150.2,148.7
黑龙江,50953,哈尔滨,45.56,126.34,117.7,118.3
黑龙江,50954,肇源,45.30,125.05,129.2,127.5
黑龙江,50956,呼兰,46.05,126.46,135.3,134.5
黑龙江,50958,阿城,45.32,126.56,166.6,168.2
黑龙江,50960,宾县,45.44,127.23,184.1,184.2
黑龙江,50962,木兰,45.57,128.02,113.5,112.1
黑龙江,50963,通河,45.58,128.44,110.0,108.6
黑龙江,50964,方正,45.50,128.48,123.2,119.3
黑龙江,50965,延寿,45.26,128.16,167.8,167.2
黑龙江,50968,尚志,45.13,127.58,191.0,189.7
黑龙江,50971,七台河,45.46,131.01,226.7,223.5
黑龙江,50973,勃利,45.45,130.36,242.8,234.4
黑龙江,50978,鸡西,45.18,130.55,273.5,272.5
黑龙江,50979,林口,45.16,130.14,276.9,274.7
黑龙江,50983,虎林,45.46,132.58,104.8,100.2
黑龙江,50985,密山,45.33,131.52,155.5,151.7
黑龙江,50987,鸡东,45.16,131.06,224.6,219.9
黑龙江,54080,五常,44.54,127.09,196.5,194.6
黑龙江,54092,海林,44.36,129.24,294.8,292.1
黑龙江,54093,穆棱,44.56,130.33,271.7,266.3
黑龙江,54094,牡丹江,44.30,129.40,306.5,305.7
黑龙江,54096,绥芬河,44.23,131.10,569.8,567.8
黑龙江,54098,宁安,44.20,129.28,272.4,267.9
黑龙江,54099,东宁,44.05,131.08,151.3,148.6
湖北,57249,竹溪,32.19,109.41,453.7,448.2
湖北,57251,郧西,33.00,110.25,249.9,249.1
湖北,57253,郧县,32.51,110.49,204.0,201.9
湖北,57256,十堰,32.39,110.47,283.5,286.5
湖北,57257,竹山,32.14,110.14,309.3,307.0
湖北,57259,房县,32.03,110.45,426.4,426.9
湖北,57260,丹江口,32.34,111.31,140.6,133.4
湖北,57265,老河口,32.26,111.44,128.8,132.1
湖北,57268,谷城,32.16,111.37,115.5,120
湖北,57278,襄阳,32.00,112.05,158.9,163.4
湖北,57279,枣阳,32.09,112.45,127.0,125.5
湖北,57355,巴东,31.02,110.22,335.0,334.0
湖北,57359,兴山,31.21,110.44,333.4,336.8
湖北,57361,保康,31.53,111.16,331.0,327.7
湖北,57362,神农架,31.45,110.40,936.2,935.2
湖北,57363,南漳,31.48,111.50,146.0,151.0
湖北,57370,宜城,31.44,112.13,68.3,67.8
湖北,57377,荆门,31.00,112.13,184.8,191.9
湖北,57378,钟祥,31.10,112.34,66.5,65.8
湖北,57381,随州,31.37,113.20,113.5,116.3
湖北,57386,孝昌,31.15,114.00,47.1,51.6
湖北,57387,京山,31.00,113.08,80.3,84.6
湖北,57388,安陆,31.16,113.42,54.3,53.7
湖北,57389,云梦,31.02,113.45,33.5,32.2
湖北,57395,大悟,31.34,114.07,71.8,74.9
湖北,57398,红安,31.17,114.37,75.3,74.3
湖北,57399,麻城,31.08,114.57,75.2,74.3
湖北,57439,利川,30.17,108.56,1075.8,1074.1
湖北,57445,建始,30.36,109.43,605.4,609.2
湖北,57447,恩施,30.17,109.28,458.0,457.1
湖北,57453,夷陵区,30.46,111.19,116.4,115.2
湖北,57458,五峰,30.12,110.40,620.7,619.9
湖北,57461,宜昌,30.44,111.22,257.5,256.5
湖北,57464,长阳,30.28,111.11,143.8,142.6
湖北,57465,宜都,30.23,111.27,76.3,74.1
湖北,57469,松滋,30.11,111.46,68.7,69.5
湖北,57475,潜江,30.24,112.54,39.2,31.2
湖北,57476,荆州,30.21,112.09,33.4,31.8
湖北,57477,公安,30.04,112.13,46.8,38.4
湖北,57481,应城,30.57,113.34,34.7,30.4
湖北,57482,孝感,30.54,113.57,26.3,25.5
湖北,57483,天门,30.40,113.08,32.2,31.9
湖北,57484,沙洋,30.44,112.33,58.3,57.2
湖北,57485,仙桃,30.18,113.29,24.9,23.7
湖北,57486,汉川,30.39,113.51,26.0,25.0
湖北,57489,蔡甸,30.35,114.00,39.4,38.4
湖北,57492,新洲,30.50,114.50,41.6,40.7
湖北,57494,武汉,30.36,114.03,24.4,23.6
湖北,57495,团风,30.40,114.53,28.8,28.1
湖北,57496,鄂州,30.22,114.52,30.7,31.3
湖北,57498,黄冈,30.26,114.54,22.1,21.4
湖北,57499,大冶,30.04,114.53,37.3,40.3
湖北,57540,咸丰,29.41,109.09,771.8,776.9
湖北,57541,宣恩,30.00,109.29,535.6,532.5
湖北,57543,鹤峰,29.54,110.02,538.7,539.8
湖北,57545,来凤,29.32,109.25,499.8,502.8
湖北,57571,石首,29.42,112.24,40.7,35.7
湖北,57573,监利,29.50,112.54,35.1,30.0
湖北,57581,洪湖,29.49,113.27,34.9,27.4
湖北,57582,赤壁,29.43,113.53,41.9,46.9
湖北,57583,嘉鱼,29.55,113.58,52.7,61.7
湖北,57586,崇阳,29.32,114.02,80.5,78.5
湖北,57589,通城,29.16,113.53,147.2,146.2
湖北,57590,咸宁,29.51,114.22,97.8,98.8
湖北,57596,金沙,29.38,114.12,752.3,751.4
湖北,58401,罗田,30.45,115.24,122.2,123.1
湖北,58402,英山,30.44,115.40,128.6,123.8
湖北,58404,浠水,30.28,115.13,56.8,61.8
湖北,58408,蕲春,30.14,115.26,36.3,35.1
湖北,58409,黄梅,30.06,115.56,27.6,32.0
湖北,58500,阳新,29.51,115.12,47.0,45.8
湖北,58501,武穴,29.55,115.38,25.8,23.5
湖南,57544,龙山,29.28,109.27,487.1,488.7
湖南,57554,桑植,29.24,110.10,320.9,322.2
湖南,57558,张家界,29.08,110.28,184.5,183.5
湖南,57562,石门,29.35,111.22,118.1,116.9
湖南,57564,慈利,29.26,111.08,104.0,103.0
湖南,57565,澧县,29.40,111.44,39.2,38.1
湖南,57566,临澧,29.27,111.39,52.5,51.5
湖南,57574,南县,29.22,112.24,37.1,36.0
湖南,57575,华容,29.31,112.34,32.1,31.0
湖南,57577,安乡,29.24,112.10,37.9,36.9
湖南,57584,岳阳,29.23,113.05,49.7,53.0
湖南,57585,临湘,29.29,113.27,60.2,60.4
湖南,57640,花垣,28.35,109.27,344.3,341.0
湖南,57642,保靖,28.42,109.38,326.8,325.3
湖南,57643,永顺,29.00,109.50,272.6,268.2
湖南,57646,古丈,28.37,109.57,302.1,302.1
湖南,57649,吉首,28.14,109.41,255.6,254.6
湖南,57655,沅陵,28.28,110.24,151.4,151.6
湖南,57657,泸溪,28.13,110.12,182.9,186.0
湖南,57658,辰溪,28.01,110.12,153.8,152.8
湖南,57661,桃源,28.55,111.29,49.8,48.7
湖南,57662,常德,29.07,111.41,151.4,150.6
湖南,57663,汉寿,28.55,111.57,31.5,31.9
湖南,57666,桃江,28.31,112.08,49.1,52.1
湖南,57669,安化,28.23,111.13,129.4,128.3
湖南,57671,沅江,28.51,112.22,35.5,37.0
湖南,57673,湘阴,28.41,112.53,54.6,53.2
湖南,57674,赫山,28.34,112.23,47.3,46.3
湖南,57678,宁乡,28.15,112.33,71.6,74.7
湖南,57679,马坡岭,28.07,112.47,116.0,115.0
湖南,57680,汨罗,28.48,113.04,47.9,46.7
湖南,57682,平江,28.43,113.34,105.0,106.3
湖南,57687,长沙,28.13,112.55,69.2,68.0
湖南,57688,浏阳,28.09,113.38,100.3,101.1
湖南,57740,凤凰,27.57,109.36,349.7,349.6
湖南,57743,麻阳,27.53,109.48,177.6,176.6
湖南,57744,新晃,27.22,109.10,356.1,355.5
湖南,57745,芷江,27.27,109.41,273.2,272.2
湖南,57752,溆浦,27.55,110.36,203.9,204.0
湖南,57754,洪江,27.21,110.09,170.7,170.9
湖南,57760,冷水江,27.42,111.26,250.4,249.2
湖南,57761,新化,27.45,111.18,213.4,211.9
湖南,57762,涟源,27.41,111.42,166.2,165.0
湖南,57763,娄底,27.41,112.00,201.2,205.8
湖南,57771,韶山,27.56,112.32,90.0,88.3
湖南,57772,湘乡,27.45,112.30,88.1,86.9
湖南,57773,湘潭,27.52,112.49,65.0,63.8
湖南,57774,双峰,27.27,112.10,98.4,100.0
湖南,57776,南岳,27.18,112.42,1265.1,1265.9
湖南,57777,衡山,27.14,112.52,65.5,63.3
湖南,57778,衡东,27.06,112.57,71.7,70.3
湖南,57779,攸县,27.00,113.21,100.6,102.5
湖南,57780,株洲,27.52,113.10,75.8,74.6
湖南,57781,醴陵,27.39,113.30,75.6,74.4
湖南,57845,通道,26.10,109.47,397.4,397.5
湖南,57865,冷水滩,26.28,111.35,167.1,166.1
湖南,57866,永州,26.14,111.37,172.1,172.6
湖南,57867,东安,26.24,111.17,169.8,169.0
湖南,57868,祁阳,26.36,111.52,114.3,113.2
湖南,57870,祁东,26.48,112.06,151.6,151.6
湖南,57871,衡阳县,26.59,112.22,91.0,90.8
湖南,57872,衡阳,26.54,112.36,104.8,104.9
湖南,57874,常宁,26.25,112.24,117.8,116.6
湖南,57875,衡南,26.45,112.41,131.0,137.0
湖南,57876,耒阳,26.26,112.50,136.2,135.0
湖南,57881,安仁,26.43,113.15,103.0,101.8
湖南,57882,茶陵,26.47,113.33,137.4,136.2
湖南,57886,炎陵,26.29,113.48,265.8,268.8
湖南,57887,永兴,26.07,113.07,168.8,167.6
湖南,57889,桂东,26.05,113.57,837.1,835.9
湖南,57962,双牌,25.58,111.39,169.0,167.8
湖南,57965,道县,25.32,111.36,191.0,192.2
湖南,57966,宁远,25.36,111.58,241.5,244.2
湖南,57969,江永,25.16,111.20,230.6,227.2
湖南,57971,新田,25.55,112.12,225.1,224.2
湖南,57972,郴州,25.48,113.02,187.1,184.9
湖南,57973,桂阳,25.45,112.43,330.3,329.1
湖南,57974,嘉禾,25.35,112.22,212.6,214.5
湖南,57975,蓝山,25.23,112.12,277.8,277.0
湖南,57976,宜章,25.25,112.57,226.4,222.8
湖南,57978,临武,25.17,112.33,293.2,292.0
湖南,57981,资兴,25.59,113.13,140.5,139.3
湖南,57985,汝城,25.34,113.41,611.0,609.8
湖南,59063,江华,25.11,111.27,262.8,265.7
吉林,50936,白城,45.38,122.50,156.2,155.3
吉林,50939,洮南,45.20,122.49,154.9,150.8
吉林,50940,镇赉,45.51,123.10,142.0,141.1
吉林,50945,大安,45.30,124.16,138.7,137.6
吉林,50946,松原,45.11,124.50,140.7,139.8
吉林,50948,乾安,45.00,124.01,148.0,146.3
吉林,50949,前郭,45.05,124.52,137.4,136.2
吉林,54041,通榆,44.48,123.04,155.4,150.0
吉林,54049,长岭,44.15,123.58,190.4,188.9
吉林,54063,扶余,44.58,126.00,197.7,196.8
吉林,54064,农安,44.23,125.09,175.4,170.2
吉林,54065,德惠,44.32,125.39,173.4,169.1
吉林,54069,九台,44.10,125.48,175.6,174.5
吉林,54072,榆树,44.51,126.31,203.3,196.5
吉林,54076,舒兰,44.23,126.56,269.3,268.1
吉林,54142,双辽,43.30,123.32,116.6,114.9
吉林,54154,梨树,43.21,124.18,160.6,160.2
吉林,54155,孤家子,43.40,124.14,145.0,144.2
吉林,54157,四平,43.10,124.20,167.2,165.7
吉林,54161,长春,43.54,125.13,237.5,236.8
吉林,54164,伊通,43.21,125.17,249.6,248.1
吉林,54165,双阳,43.33,125.38,223.9,219.5
吉林,54169,烟筒山,43.18,126.01,270.3,271.6
吉林,54171,永吉,43.42,126.31,232.4,229.5
吉林,54172,吉林城郊,43.52,126.32,291.7,290.3
吉林,54181,蛟河,43.42,127.20,294.5,295.0
吉林,54186,敦化,43.22,128.12,526.0,524.9
吉林,54187,安图,43.07,128.55,369.0,366.6
吉林,54192,罗子沟,43.42,130.16,386,384.6
吉林,54195,汪清,43.18,129.47,244.9,244.8
吉林,54260,辽源,42.55,125.05,254.4,252.9
吉林,54261,东丰,42.40,125.28,345.8,345.3
吉林,54263,磐石,42.58,126.03,339.5,336.7
吉林,54266,梅河口,42.32,125.38,341.5,340.5
吉林,54267,柳河,42.15,125.44,363.2,362.3
吉林,54273,桦甸,42.59,126.45,264.8,263.3
吉林,54274,辉南,42.41,125.59,308.3,306.7
吉林,54276,靖宇,42.24,126.48,569.6,570
吉林,54279,江源,42.03,126.35,545.4,544.4
吉林,54284,东岗,42.09,127.30,775.4,774.2
吉林,54285,二道,42.25,128.07,722.4,721.4
吉林,54286,和龙 ,42.32,129.00,478.8,475.6
吉林,54290,龙井,42.46,129.24,248.1,241.1
吉林,54291,珲春,42.54,130.17,37.8,36.5
吉林,54292,延吉,42.52,129.30,258.5,257.3
吉林,54293,图们,42.57,129.50,141.3,142.8
吉林,54362,通化县,41.40,125.44,388.8,380.1
吉林,54363,通化 ,41.41,125.54,404.3,402.9
吉林,54371,白山,41.56,126.26,521.6,520.6
吉林,54374,临江,41.48,126.53,378.9,379.7
吉林,54377,集安,41.09,126.13,225.5,225.1
吉林,54386,长白,41.25,128.11,777.8,775.0
江苏,58012,丰县,34.41,116.35,43.6,40.1
江苏,58013,沛县,34.45,116.54,36.8,36.5
江苏,58026,邳州,34.24,118.01,26.5,25.5
江苏,58027,徐州,34.17,117.09,42.0,41.2
江苏,58035,新沂,34.20,118.21,31.3,29.3
江苏,58036,东海,34.33,118.43,34.1,32.9
江苏,58038,沭阳,34.05,118.47,7.8,10.4
江苏,58040,赣榆,34.51,119.08,10.8,5.3
江苏,58041,西连岛,34.47,119.26,22.0,26.9
江苏,58044,连云港,34.32,119.14,4.7,4.7
江苏,58045,响水,34.12,119.36,8.4,4.8
江苏,58047,灌云,34.15,119.14,5.3,4.8
江苏,58048,灌南,34.07,119.21,9.1,4.2
江苏,58049,滨海,34.01,119.48,4.4,4.1
江苏,58130,睢宁,33.56,117.57,24.5,23.8
江苏,58131,宿豫,33.58,118.13,26.0,25.0
江苏,58132,泗阳,33.43,118.41,19.1,14.5
江苏,58135,泗洪,33.29,118.13,19.5,16.9
江苏,58138,盱眙,32.59,118.31,42.8,40.8
江苏,58139,洪泽,33.18,118.55,12,10.6
江苏,58140,涟水,33.46,119.18,13.4,9.1
江苏,58141,淮安,33.38,118.56,13.7,12.5
江苏,58143,阜宁,33.48,119.51,6.1,4.8
江苏,58145,楚州,33.30,119.09,8.4,7.4
江苏,58146,建湖,33.28,119.46,11.8,3.0
江苏,58147,金湖,32.59,118.58,28.6,24.2
江苏,58148,宝应,33.14,119.18,11.5,4.3
江苏,58150,射阳,33.45,120.18,3.0,1.8
江苏,58154,盐城,33.26,120.12,6.8,2.5
江苏,58158,大丰,33.12,120.29,7.1,3.1
江苏,58235,六合,32.22,118.51,12.3,10.4
江苏,58237,浦口,32.04,118.35,44.8,46.6
江苏,58238,南京,31.56,118.54,36.4,35.2
江苏,58241,高邮,32.48,119.27,9.6,5.4
江苏,58242,仪征,32.18,119.10,23.5,22.5
江苏,58243,兴化,32.57,119.49,4.5,3
江苏,58244,江都,32.27,119.35,14.4,5.2
江苏,58245,扬州,32.25,119.25,14.7,9.9
江苏,58246,泰州,32.33,120.00,3.4,2.6
江苏,58247,扬中,32.16,119.48,6.3,5.4
江苏,58249,泰兴,32.10,120.00,8.5,4.4
江苏,58250,姜堰,32.31,120.09,10.5,6.2
江苏,58251,东台,32.51,120.17,4.1,3.3
江苏,58252,丹徒,32.11,119.28,32.3,27.3
江苏,58254,海安,32.31,120.27,10.2,5.4
江苏,58255,如皋,32.22,120.34,7.1,6.4
江苏,58257,靖江,31.59,120.15,12.6,4.3
江苏,58259,南通,32.05,120.59,4.6,4.8
江苏,58264,如东,32.20,121.11,11.1,3.4
江苏,58265,吕泗,32.04,121.36,6.5,3.6
江苏,58268,通州,32.06,121.05,9.8,4.4
江苏,58269,启东,31.47,121.39,12.5,3.3
江苏,58339,高淳,31.20,118.54,20.9,15.2
江苏,58340,溧水,31.39,119.02,27.0,25.5
江苏,58341,丹阳,31.59,119.36,10.2,6.6
江苏,58342,金坛,31.43,119.33,7.7,6.9
江苏,58344,句容,31.58,119.12,35.0,36.0
江苏,58345,溧阳,31.26,119.29,8.1,5.9
江苏,58346,宜兴,31.20,119.49,15.8,16.4
江苏,58349,苏州,31.25,120.34,8.9,8.0
江苏,58351,江阴,31.54,120.18,12.2,4.2
江苏,58352,常熟,31.39,120.46,13.5,4.5
江苏,58353,张家港,31.52,120.34,10.9,8.7
江苏,58354,无锡,31.37,120.21,4.1,3.2
江苏,58356,昆山,31.24,121.00,7.5,3.2
江苏,58358,东山,31.04,120.26,21.0,16.7
江苏,58359,吴江,31.08,120.37,8.5,4.7
江苏,58360,海门,31.55,121.12,6.5,3.3
江苏,58377,太仓,31.31,121.06,6.7,5.7
江西,57598,修水,29.02,114.35,144.4,146.8
江西,57694,铜鼓,28.32,114.23,261.0,259.8
江西,57696,宜丰,28.24,114.47,92.9,91.7
江西,57698,万载,28.07,114.27,99.7,98.4
江西,57699,上高,28.14,114.55,67.8,66.6
江西,57786, 萍乡,27.38,113.51,118.7,117.5
江西,57789, 莲花,27.08,113.57,195.7,194.5
江西,57792, 分宜,27.49,114.41,94.9,93.7
江西,57793,宜春,27.48,114.23,132.3,131.3
江西,57796,新余,27.50,114.53,190.3,189.3
江西,57798, 安福,27.24,114.36,87.1,85.9
江西,57799, 吉安县,27.03,114.55,73.7,71.2
江西,57883,夏坪,26.45,114.17,257.1,253.0
江西,57891, 永新,26.56,114.15,154.0,153.0
江西,57894,井冈山,26.35,114.10,848.4,843.0
江西,57895, 万安,26.28,114.47,102.8,101.6
江西,57896,遂川,26.20,114.30,127.3,126.1
江西,57899, 泰和,26.48,114.55,72.6,71.4
江西,57990, 崇义,25.42,114.18,248.1,246.9
江西,57991, 上犹,25.48,114.33,141.9,140.2
江西,57992, 南康,25.40,114.45,128.2,127.0
江西,57993,赣县,25.52,115.00,138.7,137.5
江西,57994, 大余,25.24,114.21,216.8,215.6
江西,57995, 信丰,25.24,114.56,165.4,164.2
江西,58502,九江,29.44,116.00,37.1,36.1
江西,58503, 瑞昌,29.42,115.40,42.4,41.2
江西,58506,庐山,29.35,115.59,1165.4,1164.5
江西,58507, 武宁,29.15,115.07,117.1,116.0
江西,58508, 德安,29.20,115.46,42.5,41.3
江西,58509, 永修,29.03,115.49,37.8,36.6
江西,58510, 湖口,29.44,116.14,41.3,40.1
江西,58512, 彭泽,29.54,116.33,72.5,71.3
江西,58514, 星子,29.27,116.03,38.3,37.1
江西,58517, 都昌,29.16,116.12,36.7,35.5
江西,58519,波阳,29.00,116.41,45.3,40.1
江西,58527,景德镇,29.18,117.12,62.9,61.5
江西,58529, 婺源,29.16,117.51,82.1,80.9
江西,58600, 靖安,28.52,115.22,80.1,78.9
江西,58601, 奉新,28.42,115.23,54.9,53.7
江西,58602, 安义,28.51,115.33,39.8,38.8
江西,58605, 高安,28.25,115.23,48.3,46.8
江西,58606,南昌,28.36,115.55,47.9,46.9
江西,58607, 南昌县,28.33,115.57,32.9,31.9
江西,58608,樟树,28.04,115.33,35.4,30.4
江西,58609, 丰城,28.13,115.49,28.2,27.0
江西,58612, 余干,28.42,116.41,22.3,21.1
江西,58614, 进贤,28.23,116.16,35.5,34.2
江西,58615, 万年,28.41,117.05,57.2,56.0
江西,58616, 余江,28.12,116.49,41.9,40.9
江西,58618,东乡,28.16,116.36,83.6,82.4
江西,58619,临川,28.00,116.22,50.2,49.3
江西,58620, 乐平,29.01,117.06,52.4,51.2
江西,58622, 德兴,28.57,117.35,89.7,88.5
江西,58623, 上饶县,28.28,117.55,91.6,90.6
江西,58624, 弋阳,28.24,117.26,71.0,70.0
江西,58625, 横峰,28.25,117.36,80.2,79.0
江西,58626,贵溪,28.19,117.15,57.6,60.8
江西,58627, 鹰潭,28.15,117.02,57.0,55.8
江西,58629,铅山,28.17,117.42,101.4,100.2
江西,58634,玉山,28.41,118.15,117.5,116.3
江西,58635, 广丰,28.26,118.12,96.3,95.3
江西,58637, 上饶,28.27,117.59,119.2,118.2
江西,58693, 新建,28.42,115.50,41.2,40.0
江西,58701, 新干,27.46,115.24,47.7,46.5
江西,58704, 峡江,27.37,115.21,54.0,52.8
江西,58705, 永丰,27.20,115.25,86.9,85.7
江西,58706, 乐安,27.26,115.50,183.0,181.8
江西,58707, 吉水,27.13,115.08,67.4,66.2
江西,58710, 崇仁,27.46,116.03,79.8,78.6
江西,58712, 金溪,27.55,116.47,131.0,130.2
江西,58713, 资溪,27.43,117.04,225.8,225.1
江西,58714, 宜黄,27.33,116.14,121.6,120.4
江西,58715,南城,27.35,116.39,82.0,80.8
江西,58718, 南丰,27.13,116.32,112.5,111.5
江西,58719, 黎川,27.18,116.56,132.1,131.1
江西,58804, 兴国,26.21,115.21,152.2,151.0
江西,58806, 宁都,26.29,116.01,210.3,209.1
江西,58813,广昌,26.51,116.20,141.5,143.8
江西,58814, 石城,26.21,116.21,248.6,247.4
江西,58903, 瑞金,25.54,116.02,209.2,208.0
江西,58905, 于都,25.58,115.25,134.4,133.2
江西,58906, 会昌,25.36,115.48,168.4,167.4
江西,58907, 安远,25.09,115.24,306.2,305.0
江西,59091,全南,24.45,114.31,278.2,277.1
江西,59092, 龙南,24.55,114.49,207.5,206.3
江西,59093, 定南,24.47,115.02,254.2,253.0
江西,59102,寻乌,24.57,115.39,302.6,303.9
江西,58524,浮梁,29.22,117.13,87.3,87.4
江西,57794,芦溪,27.38,114.01,173.2,177.2
江西,57783,上栗,27.53,113.49,117.0,119.5
江西,58505,九江县,29.37,115.54,57.0,63.1
辽宁,54236,彰武,42.23,122.33,85.0,79.4
辽宁,54243,昌图,42.47,124.07,165.8,165.1
辽宁,54244,康平,42.45,123.20,120.1,118.6
辽宁,54245,法库,42.30,123.24,99.3,97.8
辽宁,54248,沈北新区,42.02,123.32,67.8,61.6
辽宁,54249,铁岭,42.18,123.52,79.4,85.4
辽宁,54252,西丰,42.44,124.45,198.7,196.1
辽宁,54254,开原,42.32,124.03,102.9,98.2
辽宁,54259,清原,42.04,124.52,230.0,224.0
辽宁,54321,建平镇,41.52,119.38,661.6,661.8
辽宁,54323,北票,41.49,120.47,253.5,253.8
辽宁,54324,朝阳,41.33,120.26,175.3,174.3
辽宁,54325,羊山,41.11,120.21,183.1,183.8
辽宁,54326,建平县,41.25,119.37,470.1,462.2
辽宁,54327,凌源,41.14,119.21,421.5,417.1
辽宁,54328,喀左,41.05,119.43,300.6,296.8
辽宁,54332,辽中,41.31,122.43,13.9,12.2
辽宁,54333,新民,41.58,122.51,32.1,30.9
辽宁,54336,台安,41.25,122.25,13.1,8.3
辽宁,54338,盘山,41.17,121.57,4.1,3.2
辽宁,54339,鞍山,41.05,123.00,78.5,77.3
辽宁,54340,苏家屯,41.40,123.19,47.6,35.8
辽宁,54342,沈阳,41.44,123.31,49.5,49.0
辽宁,54345,辽阳县,41.12,123.04,29.6,30.7
辽宁,54346,本溪,41.19,123.47,186.1,185.4
辽宁,54347,辽阳,41.14,123.10,25.7,24.8
辽宁,54348,灯塔,41.25,123.20,36.5,36.8
辽宁,54351,抚顺,41.55,124.05,116.5,118.5
辽宁,54353,新宾,41.44,125.03,331.7,328.4
辽宁,54452,建昌,40.48,119.49,367.8,365.5
辽宁,54453,连山区,40.47,120.53,43.0,38.5
辽宁,54454,绥中,40.20,120.18,29.0,29.0
辽宁,54455,兴城,40.37,120.39,21.5,20.5
辽宁,54470,大洼,41.01,122.04,6.1,5.5
辽宁,54471,营口,40.39,122.10,4.6,3.8
辽宁,54474,盖州,40.25,122.21,27.6,24.8
辽宁,54475,大石桥,40.37,122.29,15.3,11.5
辽宁,54476,熊岳,40.10,122.09,37.9,20.4
辽宁,54483,草河口,40.53,123.54,239.8,233.6
辽宁,54486,岫岩,40.17,123.17,81.3,79.8
辽宁,54493,宽甸,40.43,124.47,261.1,260.1
辽宁,54494,凤城,40.28,124.04,74.4,72.6
辽宁,54497,丹东,40.03,124.20,13.1,13.8
辽宁,54563,瓦房店,39.38,122.01,119.0,118.7
辽宁,54568,金州,39.04,121.45,94.2,90.8
辽宁,54569,普兰店,39.25,121.57,12.7,11.7
辽宁,54575,皮口,39.25,122.22,43.1,43.2
辽宁,54579,长海,39.16,122.35,33.6,35.5
辽宁,54584,庄河,39.43,122.57,35.9,34.8
辽宁,54590,东港,39.53,124.10,5.3,4.2
辽宁,54662,大连,38.54,121.38,92.5,91.5
辽宁,54565,长兴岛,39.36,121.28,72.0,70.6
内蒙古,50425,额尔古纳市,50.15,120.11,582.3,581.4
内蒙古,50431,根河市,50.47,121.31,718.2,717.0
内蒙古,50434,图里河,50.29,121.41,733.7,732.6
内蒙古,50445,鄂伦春自治旗,50.35,123.44,424.7,423.7
内蒙古,50514,满洲里,49.35,117.19,662.7,661.8
内蒙古,50524,陈巴尔虎旗,49.19,119.26,578.5,576.6
内蒙古,50525,鄂温克族自治旗,49.09,119.45,621.6,620.8
内蒙古,50526,牙克石市,49.17,120.42,670.0,668.8
内蒙古,50527,海拉尔,49.15,119.42,650.4,649.6
内蒙古,50548,小二沟,49.12,123.43,287.2,286.1
内蒙古,50603,新巴尔虎右旗,48.40,116.49,556.0,554.2
内蒙古,50618,新巴尔虎左旗,48.13,118.16,644.6,642.0
内蒙古,50639,扎兰屯,48.00,122.44,308.5,306.5
内蒙古,50645,莫力达瓦达斡尔族自治旗,48.29,124.29,196.5,195.0
内蒙古,50647,阿荣旗,48.08,123.29,237.2,236.2
内蒙古,50727,阿尔山,47.10,119.56,997.7,997.2
内蒙古,50834,索伦,46.36,121.13,501.0,499.7
内蒙古,50913,乌拉盖,45.43,118.50,866.1,865.0
内蒙古,50915,东乌珠穆沁,45.31,116.58,838.9,838.7
内蒙古,50924,霍林郭勒,45.32,119.40,824.7,823.7
内蒙古,50928,巴雅尔吐胡硕,45.04,120.20,629.1,628.3
内蒙古,50934,突泉,45.23,121.35,312.7,311.7
内蒙古,50937,尔沁右翼中,45.04,121.29,283.1,282.1
内蒙古,53068,二连浩特,43.38,111.56,964.1,963.1
内蒙古,53083,那仁宝力格,44.37,114.09,1182.9,1181.6
内蒙古,53149,满都拉气象站,42.32,110.08,1226.7,1225.2
内蒙古,53192,阿巴嘎旗,44.01,114.57,1127.3,1126.1
内蒙古,53231,海力素,41.24,106.24,1510.6,1509.6
内蒙古,53289,镶黄旗,42.14,113.50,1322.8,1322.1
内蒙古,53336,乌拉特中旗,41.34,108.31,1289.2,1288.0
内蒙古,53337,五原,41.06,108.16,1025.4,1023.7
内蒙古,53348,大佘太,41.01,109.08,1080.5,1078.7
内蒙古,53352,达茂旗气象局,41.42,110.26,1376.2,1376.6
内蒙古,53357,固阳县气象局,41.02,110.03,1362.1,1360.4
内蒙古,53362,四子王,41.32,111.41,1491.4,1490.1
内蒙古,53367,希拉穆仁,41.19,111.14,1603.7,1602.3
内蒙古,53368,武川县,41.05,111.28,1640.2,1637.3
内蒙古,53378,察右中旗,41.17,112.37,1737.9,1737.3
内蒙古,53384,察右后旗,41.27,113.11,1424.9,1423.5
内蒙古,53385,商都,41.36,113.32,1420.9,1420.0
内蒙古,53391,化德,41.54,114.00,1484.6,1482.7
内蒙古,53419,磴口,40.20,107.00,1060.4,1055.3
内蒙古,53420,杭锦后旗,40.51,107.07,1024.9,1024.0
内蒙古,53433,乌拉特前旗,40.44,108.39,1022.0,1020.4
内蒙古,53446,包头市,40.32,109.53,1005.9,1004.7
内蒙古,53455,土右旗气象局,40.33,110.32,1000.9,998.6
内蒙古,53457,达拉特旗,40.24,110.02,1012.2,1011.0
内蒙古,53463,呼和浩特,40.51,111.34,1154.4,1153.5
内蒙古,53464,土默特左旗,40.43,111.10,1047.5,1042.7
内蒙古,53466,呼和浩特郊区站,40.45,111.42,1046.6,1045.4
内蒙古,53467,托克托县,40.16,111.11,1017.5,1016.0
内蒙古,53469,和林格尔县,40.24,111.49,1164.0,1166.7
内蒙古,53472,卓资,40.52,112.34,1453.2,1451.7
内蒙古,53475,凉城,40.31,112.28,1272.2,1268.9
内蒙古,53480,集宁,41.02,113.04,1421.5,1419.3
内蒙古,53481,察右前旗,40.48,113.13,1317.1,1316.8
内蒙古,53483,兴和,40.52,113.50,1269.9,1268.7
内蒙古,53484,丰镇,40.27,113.09,1192.9,1191.5
内蒙古,53512,乌海,39.48,106.48,1105.8,1105.6
内蒙古,53513,临河,40.44,107.22,1042.3,1041.1
内蒙古,53522,伊克乌素,40.03,107.50,1181.4,1180.3
内蒙古,53529,鄂托克旗,39.05,107.58,1381.7,1381.4
内蒙古,53533,杭锦旗,39.49,108.43,1414.4,1414.0
内蒙古,53543,东胜,39.50,109.59,1462.8,1461.9
内蒙古,53545,伊金霍洛旗,39.34,109.43,1367.3,1367
内蒙古,53553,准格尔旗,39.52,111.13,1222.9,1221.4
内蒙古,53562,清水河县,39.55,111.40,1192.2,1187.4
内蒙古,53644,乌审旗,38.36,108.50,1309.3,1307.2
内蒙古,53730,鄂托克前旗,38.11,107.29,1335.0,1333.3
内蒙古,53732,河南,37.51,108.43,1211.5,1209.9
内蒙古,54012,西乌珠穆沁,44.35,117.36,1002.6,1001.7
内蒙古,54024,富河,44.27,119.18,710.0,710.0
内蒙古,54026,扎鲁特,44.34,120.54,265.8,265.0
内蒙古,54027,巴林左旗,43.59,119.24,487.2,486.2
内蒙古,54031,高力板,44.54,121.49,201.1,198.3
内蒙古,54039,舍伯吐,44.02,122.01,182.7,181.6
内蒙古,54047,科左中旗,44.08,123.17,146.9,145.8
内蒙古,54102,锡林浩特,43.57,116.07,1003.8,1003.0
内蒙古,54113,巴林右旗,43.32,118.39,622.5,621.4
内蒙古,54115,林西县,43.38,118.02,825.4,825.0
内蒙古,54117,克什克腾旗,43.15,117.32,1004.4,1003.3
内蒙古,54122,阿鲁科尔沁旗,43.53,120.03,376.0,374.9
内蒙古,54132,青龙山,42.24,121.04,400.6,400.0
内蒙古,54134,开鲁,43.36,121.17,242.3,241.0
内蒙古,54135,通辽,43.36,122.16,180.1,178.7
内蒙古,54204,正镶白旗,42.18,115.00,1347.8,1346.3
内蒙古,54205,正蓝旗,42.14,116.00,1316.6,1315.5
内蒙古,54208,多伦县,42.11,116.28,1247.0,1245.4
内蒙古,54213,翁牛特旗,42.56,119.01,635.7,634.3
内蒙古,54214,岗子,42.35,118.25,961.3,960.0
内蒙古,54218,赤峰,42.18,118.50,669.0,668.6
内蒙古,54223,奈曼,42.51,120.39,364.0,362.9
内蒙古,54225,敖汉旗,42.18,119.57,580.3,579.4
内蒙古,54226,宝国吐,42.20,120.42,402.0,400.5
内蒙古,54231,科左后旗,42.58,122.21,249.3,248.1
内蒙古,54234,库伦,42.44,121.45,298.9,297.8
内蒙古,54305,太仆寺旗,41.53,115.16,1470.0,1468.9
内蒙古,54313,喀喇沁旗,41.56,118.42,734.8,733.7
内蒙古,54316,八里罕,41.31,118.45,680.7,679.3
内蒙古,54320,宁城县,41.36,119.18,545.3,544.2
宁夏,53517,石炭井,39.16,106.20,1466.4,1464.5
宁夏,53518,石嘴山,39.02,106.21,1118.7,1117.7
宁夏,53519,惠农,39.13,106.46,1093.1,1092.5
宁夏,53603,沙湖,38.50,106.22,1096.0,1095.0
宁夏,53610,贺兰,38.34,106.21,1107.0,1106.2
宁夏,53611,平罗,38.53,106.33,1099.4,1098.7
宁夏,53612,吴忠,37.59,106.11,1132.2,1128.8
宁夏,53614,银川,38.28,106.12,1111.6,1110.9
宁夏,53615,陶乐,38.48,106.42,1102.9,1101.6
宁夏,53617,青铜峡,38.02,106.05,1119.2,1118.0
宁夏,53618,永宁,38.17,106.15,1115.5,1113.7
宁夏,53619,灵武,38.07,106.18,1117.3,1115.9
宁夏,53704,中卫,37.32,105.11,1226.6,1225.7
宁夏,53705,中宁,37.29,105.41,1184.4,1183.4
宁夏,53707,兴仁,36.56,105.15,1699.0,1697.9
宁夏,53723,盐池,37.48,107.23,1350.4,1349.3
宁夏,53727,麻黄山,37.10,107.07,1713.5,1712.5
宁夏,53806,海原,36.34,105.39,1854.8,1854.2
宁夏,53810,同心,36.58,105.54,1340.7,1339.3
宁夏,53817,固原,36.00,106.16,1754.2,1753.0
宁夏,53881,韦州,37.17,106.29,1382.9,1382.2
宁夏,53903,西吉,35.58,105.43,1917.9,1916.5
宁夏,53910,六盘山,35.40,106.12,2839.1,2841.2
宁夏,53914,隆德,35.37,106.07,2079.5,2078.6
宁夏,53916,泾源,35.30,106.19,1949.1,1948.6
青海,52602,冷湖,38.45,93.20,2770.8,2770.0
青海,52707,小灶火,36.48,93.41,2767.8,2767.0
青海,52818,格尔木,36.25,94.55,2808.4,2807.6
青海,52825,诺木洪,36.26,96.26,2791.2,2790.4
青海,52836,都兰,36.18,98.06,3189.8,3189.0
青海,52854,青海湖151,36.35,100.29,3201.6,3200.8
青海,52856,共和,36.16,100.37,2835.8,2835.0
青海,52863,互助,36.49,101.57,2480.8,2480.0
青海,52866,西宁,36.44,101.45,2296.0,2295.2
青海,52868,贵德,36.01,101.22,2273.8,2273.0
青海,52869,湟中,36.30,101.35,2668.3,2667.5
青海,52875,平安,36.30,102.06,2125.8,2125.0
青海,52876,民和,36.20,102.50,1814.7,1813.9
青海,52877,化隆,36.06,102.15,2835.5,2834.7
青海,52908,五道梁,35.13,93.05,4613.0,4612.2
青海,52941,沙珠玉,36.16,100.16,2872.8,2872.0
青海,52943,兴海,35.35,99.59,3324.0,3323.2
青海,52955,贵南,35.35,100.44,3120.8,3120.0
青海,52957,同德,35.15,100.36,3149.0,3148.2
青海,52963,尖扎,35.56,102.01,2086.5,2085.7
青海,52968,泽库,35.02,101.28,3663.6,3662.8
青海,52972,循化,35.51,102.27,1921.8,1921
青海,52974,同仁,35.31,102.01,2492.2,2491.4
青海,56004,沱沱河,34.13,92.26,4533.9,4533.1
青海,56016,治多,33.51,95.37,4179.9,4179.1
青海,56018,杂多,32.53,95.17,4067.2,4066.4
青海,56021,曲麻莱,34.07,95.48,4175.8,4175.0
青海,56029,玉树,33.00,96.58,3717.7,3716.9
青海,56033,玛多,34.55,98.13,4273.1,4272.3
青海,56034,清水河,33.48,97.08,4416.2,4415.4
青海,56043,玛沁,34.29,100.14,3719.8,3719.0
青海,56045,甘德,33.58,99.54,4050.8,4050.0
青海,56046,达日,33.45,99.39,3968.3,3967.5
青海,56065,河南,34.44,101.36,3500.8,3500.0
青海,56067,久治,33.26,101.29,3629.3,3628.5
青海,56125,囊谦,32.12,96.28,3644.5,3643.7
青海,56151,班玛,32.56,100.45,3530.8,3530.0
山东,54709,武城,37.13,116.04,26.9,25.7
山东,54712,临邑,37.12,116.49,19.7,18.5
山东,54714,德州,37.27,116.20,24.8,23.6
山东,54715,陵县,37.19,116.34,22.8,18.6
山东,54716,宁津,37.40,116.48,17.5,16.3
山东,54722,无棣,37.45,117.38,8,6.8
山东,54723,阳信,37.39,117.34,11.2,10.1
山东,54724,商河,37.19,117.08,15.9,14.8
山东,54725,惠民,37.30,117.32,12.9,11.7
山东,54726,乐陵,37.42,117.11,12.7,11.5
山东,54727,章丘,36.41,117.33,123,121.8
山东,54728,庆云,37.46,117.23,9.6,8.4
山东,54729,高青,37.10,117.52,12.5,11.5
山东,54734,滨州,37.21,118.00,13.4,12.2
山东,54736,东营,37.26,118.40,9.2,6.0
山东,54744,垦利,37.35,118.33,9.8,8.5
山东,54749,莱州,37.11,119.57,48.9,48.4
山东,54751,长岛,37.56,120.44,43.0,39.7
山东,54752,蓬莱,37.48,120.46,61.8,60.7
山东,54753,龙口,37.38,120.20,5.7,4.8
山东,54755,招远,37.20,120.23,118.7,117.8
山东,54759,栖霞,37.19,120.51,190.1,205.5
山东,54764,福山,37.29,121.14,55.2,53.9
山东,54765,烟台,37.29,121.26,83.0,82.0
山东,54776,成山头,37.24,122.42,46.4,47.7
山东,54777,文登,37.12,122.04,119.2,118.0
山东,54802,临清,36.49,115.44,34.9,34.0
山东,54806,聊城,36.25,115.58,34.3,33.0
山东,54807,阳谷,36.09,115.46,42.5,41.2
山东,54808,莘县,36.14,115.38,39.1,37.8
山东,54812,齐河,36.47,116.45,23.9,22.7
山东,54814,茌平,36.32,116.15,30.9,29.7
山东,54815,东阿,36.23,116.16,32.6,31.4
山东,54816,长清,36.31,116.48,100.1,98.9
山东,54818,平阴,36.15,116.25,81.0,79.9
山东,54819,肥城,36.11,116.48,114.9,113.6
山东,54821,济阳,37.00,117.12,21.6,20.4
山东,54822,邹平,36.52,117.44,48.6,47.4
山东,54823,济南,36.36,117.00,171.2,170.3
山东,54824,淄川,36.38,117.57,95.3,95.0
山东,54825,博山,36.31,117.51,190.9,189.7
山东,54826,泰山,36.15,117.06,1536.5,1533.7
山东,54827,泰安,36.10,117.09,129.8,128.6
山东,54828,莱芜,36.14,117.41,228.6,229.3
山东,54829,周村,36.46,117.52,86.7,85.7
山东,54830,淄博,36.49,117.56,35.3,34.4
山东,54831,青州,36.39,118.30,103.7,102.5
山东,54832,寿光,36.53,118.44,27.0,25.8
山东,54833,桓台,36.58,118.05,16.3,15.1
山东,54834,临淄,36.52,118.17,47.3,46.3
山东,54835,临朐,36.30,118.33,110.6,106.5
山东,54836,沂源,36.11,118.10,303.7,305.1
山东,54837,昌乐,36.41,118.50,80.0,78.8
山东,54841,昌邑,36.52,119.25,24.7,23.5
山东,54842,平度,36.47,120.00,63.3,62.2
山东,54843,潍坊,36.45,119.12,22.5,22.2
山东,54844,安丘,36.25,119.11,67.5,62.7
山东,54846,高密,36.23,119.44,52.7,51.5
山东,54848,诸城,35.59,119.25,81.8,82.6
山东,54849,胶州,36.13,120.02,83.9,84.4
山东,54851,莱西,36.54,120.34,77.8,76.9
山东,54852,莱阳,36.58,120.44,53.6,54.4
山东,54853,崂山,36.10,120.25,43.7,42.6
山东,54855,即墨,36.23,120.28,30.2,26.2
山东,54857,青岛,36.04,120.20,75.3,76.0
山东,54861,乳山,36.56,121.32,47.8,45.4
山东,54863,海阳,36.47,121.11,42.0,40.9
山东,54871,石岛,36.56,122.29,9.1,9.8
山东,54904,鄄城,35.35,115.31,51.5,50.1
山东,54905,郓城,35.35,115.56,47.4,46.2
山东,54906,菏泽,35.15,115.25,51.1,49.9
山东,54907,鱼台,34.59,116.39,35.4,34.3
山东,54908,东明,35.16,115.06,58.2,57.3
山东,54909,定陶,35.05,115.31,51.7,51.5
山东,54910,梁山,35.49,116.03,42.0,40.9
山东,54911,东平,35.56,116.24,44.2,44
山东,54912,汶上,35.46,116.30,42.9,41.8
山东,54913,宁阳,35.45,116.49,63.4,62.2
山东,54914,巨野,35.25,116.05,41.8,40.6
山东,54915,济宁,35.26,116.36,34.3,33.3
山东,54916,兖州,35.34,116.51,60.1,51.7
山东,54917,金乡,35.06,116.19,37.8,36.7
山东,54918,曲阜,35.36,116.58,63.4,62.3
山东,54919,邹城,35.23,116.59,89.7,88.7
山东,54920,泗水,35.39,117.17,111.5,110.4
山东,54921,嘉祥,35.25,116.20,39.6,38.1
山东,54922,新泰,35.53,117.47,225.2,224.0
山东,54923,蒙阴,35.43,117.56,203.4,202.2
山东,54925,平邑,35.31,117.38,168.4,167.2
山东,54927,滕州,35.06,117.12,76.1,74.9
山东,54929,费县,35.16,117.58,120.6,121.2
山东,54932,沂水,35.46,118.39,187.8,186.7
山东,54935,沂南,35.32,118.26,120.6,119.4
山东,54936,莒县,35.34,118.50,108.4,107.4
山东,54938,临沂,35.03,118.24,66.4,65.2
山东,54939,莒南,35.10,118.49,115.0,113.8
山东,54940,五莲,35.45,119.12,146.4,148.2
山东,54943,黄岛,35.53,120.00,11.9,10.4
山东,54945,日照,35.26,119.32,37.1,36.9
山东,58002,曹县,34.51,115.35,50.2,49.0
山东,58003,成武,34.57,115.53,46.6,45.4
山东,58011,单县,34.48,116.04,47.4,46.2
山东,58020,微山,34.48,117.08,36.2,35.1
山东,58021,薛城,34.47,117.17,81.7,80.5
山东,58022,峄城,34.45,117.34,49.5,48.3
山东,58024,枣庄,34.52,117.35,78.5,77.7
山东,58025,台儿庄,34.34,117.44,28.8,27.6
山东,58030,苍山,34.53,118.01,45.7,44.5
山东,58032,临沭,34.56,118.39,71.3,70.1
山西,53478,右玉,40.00,112.27,1346.7,1345.8
山西,53486,阳高,40.22,113.46,1051.2,1050.3
山西,53487,大同,40.05,113.25,1053.6,1052.6
山西,53488,大同县,40.02,113.35,1035.4,1034.3
山西,53490,天镇,40.26,114.03,1015.7,1014.7
山西,53564,河曲,39.23,111.09,862.5,861.5
山西,53565,偏关,39.26,111.30,1050.8,1051.7
山西,53573,左云,40.00,112.42,1337.7,1336.3
山西,53574,平鲁,39.31,112.16,1408.6,1409.4
山西,53575,神池,39.06,112.12,1526.2,1525.4
山西,53576,山阴,39.30,112.49,1045.9,1045.0
山西,53577,宁武,39.00,112.18,1438.7,1437.4
山西,53578,朔州,39.22,112.26,1115.7,1114.8
山西,53579,代县,39.01,112.54,860.6,859.7
山西,53582,浑源,39.43,113.40,1080.7,1079.2
山西,53584,应县,39.34,113.10,1001.9,1000.7
山西,53585,繁峙,39.10,113.16,935.2,933.9
山西,53588,五台山,38.57,113.31,2209.3,2208.3
山西,53590,广灵,39.45,114.16,979.4,977.8
山西,53594,灵丘,39.27,114.11,939.7,938.7
山西,53659,临县,37.58,111.00,1164.1,1163.3
山西,53660,保德,39.01,111.05,893.5,894.4
山西,53662,岢岚,38.43,111.35,1397.7,1396.7
山西,53663,五寨,38.55,111.49,1402.0,1401.0
山西,53664,兴县,38.28,111.08,1013.6,1012.6
山西,53665,岚县,38.17,111.39,1186.0,1185.1
山西,53666,静乐,38.21,111.56,1214.1,1212.2
山西,53669,娄烦,38.05,111.48,1151.5,1150.3
山西,53673,原平,38.44,112.43,829.60,828.2
山西,53674,忻府区,38.24,112.42,870.7,869.9
山西,53676,定襄,38.30,112.59,760.9,759.4
山西,53677,尖草坪,37.56,112.29,807.4,806.5
山西,53678,阳曲,38.04,112.39,902.1,897.1
山西,53679,小店区,37.45,112.33,777.2,776.2
山西,53681,五台县豆村,38.50,113.22,1097.7,1096.2
山西,53685,盂县,38.04,113.25,953.8,953.2
山西,53687,平定,37.47,113.38,753.8,753.0
山西,53753,柳林,37.26,110.53,861.0,860.1
山西,53759,石楼,36.59,110.50,1110.7,1109.1
山西,53760,方山,37.53,111.14,1213.3,1212.4
山西,53763,古交,37.55,112.10,1008.0,1006.8
山西,53764,离石,37.30,111.06,951.7,950.8
山西,53767,中阳,37.20,111.10,1212.2,1213.1
山西,53768,孝义,37.09,111.45,774.3,773.4
山西,53769,汾阳,37.15,111.47,749.1,747.7
山西,53770,祁县,37.21,112.21,769.9,768.8
山西,53771,文水,37.25,112.03,751.3,750.0
山西,53772,太原,37.37,112.35,777.3,776.3
山西,53774,清徐,37.35,112.22,760.9,759.9
山西,53775,太谷,37.25,112.36,786.7,785.8
山西,53776,榆次,37.41,112.46,831.5,831.2
山西,53777,交城,37.32,112.09,760.2,759.3
山西,53778,平遥,37.10,112.13,780.9,780.3
山西,53780,寿阳,37.54,113.09,1067.6,1066.1
山西,53782,阳泉,37.56,113.37,768.9,767.2
山西,53783,昔阳,37.36,113.42,880.3,876.2
山西,53786,左权,37.05,113.20,1154.0,1152.5
山西,53787,榆社,37.04,112.59,1042.3,1041.4
山西,53788,和顺,37.20,113.34,1267.0,1265.7
山西,53852,永和,36.46,110.38,917.5,916.6
山西,53853,隰县,36.42,110.57,1053.6,1052.7
山西,53856,大宁,36.28,110.45,766.8,765.9
山西,53859,吉县,36.06,110.40,852.3,851.3
山西,53860,交口,36.59,111.10,1407.2,1406.7
山西,53861,襄汾,35.53,111.23,460.5,463.5
山西,53862,灵石,36.51,111.48,812.5,811.7
山西,53863,介休,37.02,111.55,745.4,743.9
山西,53864,蒲县,36.24,111.06,1031.1,1030.6
山西,53865,汾西,36.39,111.33,1013.1,1011.9
山西,53866,洪洞,36.14,111.40,464.1,462.8
山西,53868,临汾,36.04,111.30,450.4,449.5
山西,53869,霍州,36.35,111.42,551.2,550.0
山西,53871,武乡,36.50,112.51,965.8,964.1
山西,53872,沁县,36.46,112.41,961.6,960.7
山西,53873,长子,36.06,112.52,952.5,951.1
山西,53874,古县,36.15,111.54,650.0,648.7
山西,53875,沁源,36.31,112.21,1001.0,1000.0
山西,53877,安泽,36.10,112.15,861.0,860.1
山西,53878,黎城,36.31,113.23,769.1,767.9
山西,53879,屯留,36.19,112.53,953.2,952.3
山西,53880,潞城,36.20,113.14,948.9,947.6
山西,53882,长治,36.04,113.02,1047.9,1046.9
山西,53884,襄垣,36.31,113.02,878.8,877.9
山西,53885,壶关,36.07,113.12,1123.2,1122.0
山西,53888,平顺,36.12,113.26,1088.6,1089.2
山西,53953,乡宁,35.58,110.51,966.2,965.3
山西,53954,稷山,35.37,110.58,433.5,433.5
山西,53956,万荣,35.24,110.50,589.6,588.4
山西,53957,河津,35.37,110.43,460.0,459.2
山西,53958,临猗,35.10,110.47,436.7,435.6
山西,53959,盐湖,35.03,111.03,366.7,365.0
山西,53961,曲沃,35.39,111.29,473.4,472.6
山西,53962,翼城,35.44,111.42,585.3,584.5
山西,53963,侯马,35.39,111.22,435.1,433.8
山西,53964,新绛,35.37,111.13,431.8,430.8
山西,53965,绛县,35.31,111.34,761.9,761.0
山西,53966,浮山,35.59,111.50,818.1,817.2
山西,53967,闻喜,35.20,111.12,469.8,468.3
山西,53968,垣曲,35.17,111.40,505.9,505
山西,53970,沁水,35.42,112.12,887.1,887.3
山西,53973,高平,35.46,112.57,836.6,837.3
山西,53975,阳城,35.29,112.24,661.1,659.5
山西,53976,晋城,35.30,112.52,753.6,752.6
山西,53981,陵川,35.47,113.16,1313.2,1311.6
山西,57052,永济,34.53,110.27,355.1,354.1
山西,57053,芮城,34.42,110.43,507.1,505.7
山西,57060,夏县,35.10,111.14,404.2,402.9
山西,57061,平陆,34.50,111.12,412.6,410.7
陕西,53567,府谷,39.01,111.00,1025.1,1024.3
陕西,53646,榆林,38.16,109.47,1157.8,1157.0
陕西,53651,神木,38.49,110.28,1099.1,1098.0
陕西,53658,佳县,38.02,110.29,895.4,894.4
陕西,53725,定边,37.35,107.35,1361.2,1360.3
陕西,53735,靖边,37.37,108.48,1337.8,1336.7
陕西,53738,吴旗,36.55,108.10,1331.1,1331.4
陕西,53740,横山,37.56,109.14,1107.5,1111.0
陕西,53748,子长,37.11,109.42,1064.4,1063.3
陕西,53750,米脂,37.46,110.11,931.6,931.0
陕西,53751,子洲,37.36,110.03,895.8,894.6
陕西,53754,绥德,37.30,110.13,930.7,929.7
陕西,53756,吴堡,37.31,110.43,745.0,744.0
陕西,53757,清涧,37.07,110.07,938.8,938.0
陕西,53832,志丹,36.46,108.46,1220.0,1218.8
陕西,53841,安塞,36.53,109.19,1069.1,1068.3
陕西,53848,甘泉,36.16,109.21,1005.4,1005.5
陕西,53850,延川,36.53,110.11,805.7,804.9
陕西,53854,延长,36.35,110.04,805.5,804.8
陕西,53857,宜川,36.04,110.11,841.1,840.3
陕西,53929,长武,35.12,107.48,1206.8,1206.5
陕西,53931,富县,36.00,109.22,984.8,984.0
陕西,53938,旬邑,35.10,108.18,1277.9,1277.0
陕西,53941,白水,35.11,109.35,807.1,804.4
陕西,53942,洛川,35.46,109.25,1156.9,1155.9
陕西,53944,黄陵,35.34,109.15,857.3,863.0
陕西,53945,宜君,35.26,109.04,1394.4,1395.2
陕西,53946,黄龙,35.36,109.49,1091.0,1091.0
陕西,53947,铜川,35.05,109.04,979.7,978.9
陕西,53948,蒲城,34.57,109.35,499.9,499.2
陕西,53949,澄城,35.11,109.55,680.4,679.1
陕西,53950,合阳,35.14,110.09,709.9,708.8
陕西,57003,陇县,34.54,106.50,925.1,924.2
陕西,57016,宝鸡,34.21,107.08,613.7,612.4
陕西,57020,宝鸡县,34.22,107.24,564.3,563.0
陕西,57021,千阳,34.39,107.08,751.5,751.6
陕西,57022,麟游,34.41,107.47,1026.4,1026.3
陕西,57023,彬县,35.01,108.07,920.6,919.9
陕西,57024,岐山,34.27,107.39,671.1,669.6
陕西,57025,凤翔,34.31,107.23,782.0,781.1
陕西,57026,扶风,34.22,107.53,586.9,585.9
陕西,57027,眉县,34.16,107.44,518.4,517.6
陕西,57028,太白,34.02,107.19,1544.4,1543.6
陕西,57029,礼泉,34.30,108.29,544.4,543.2
陕西,57030,永寿,34.42,108.09,995.4,994.6
陕西,57031,淳化,34.49,108.33,1013.5,1012.7
陕西,57033,泾阳,34.33,108.49,429.0,428.1
陕西,57034,武功,34.15,108.13,449.2,447.8
陕西,57035,乾县,34.33,108.14,636.7,636.8
陕西,57037,耀县,34.56,108.59,711.8,710.0
陕西,57038,兴平,34.17,108.27,411.5,410.9
陕西,57041,三原,34.38,108.55,425.5,424.0
陕西,57042,富平,34.47,109.11,472.3,470.9
陕西,57043,大荔,34.48,109.58,352.3,351.4
陕西,57045,渭南,34.31,109.29,354.3,349.8
陕西,57046,华山,34.29,110.05,2057.9,2064.9
陕西,57048,秦都,34.24,108.43,473.4,472.8
陕西,57054,潼关,34.33,110.14,557.1,556.3
陕西,57055,华阴,34.33,110.05,352.5,351.3
陕西,57057,洛南,34.06,110.09,964.2,963.4
陕西,57106,略阳,33.19,106.09,797.3,794.2
陕西,57113,凤县,33.54,106.32,986.7,985.9
陕西,57119,勉县,33.10,106.42,552.2,548.1
陕西,57123,杨凌,34.17,108.04,506.8,506.0
陕西,57124,留坝,33.38,106.56,1033.3,1032.1
陕西,57127,汉中,33.04,107.02,510.7,509.5
陕西,57128,城固,33.10,107.20,487.0,486.4
陕西,57131,泾河,34.26,108.58,411.0,410.0
陕西,57134,佛坪,33.31,107.59,827.9,827.2
陕西,57137,宁陕,33.19,108.19,802.0,802.4
陕西,57140,柞水,33.40,109.07,819.4,818.2
陕西,57143,商县,33.52,109.58,743.8,742.2
陕西,57144,镇安,33.26,109.09,696.2,693.7
陕西,57153,丹凤,33.41,110.20,582.5,581.7
陕西,57154,商南,33.32,110.54,523.8,523.0
陕西,57155,山阳,33.33,109.52,661.0,660.2
陕西,57211,宁强,32.50,106.15,837.1,836.1
陕西,57213,南郑,33.00,106.56,537.5,536.5
陕西,57231,紫阳,32.32,108.32,505.0,503.8
陕西,57232,石泉,33.03,108.16,485.0,484.9
陕西,57233,汉阴,32.54,108.30,414.3,413.1
陕西,57238,镇巴,32.32,107.54,695.1,693.9
陕西,57242,旬阳,32.51,109.22,286.5,285.5
陕西,57245,安康,32.43,109.02,291.7,290.8
陕西,57247,岚皋,32.19,108.54,439.5,438.5
陕西,57248,平利,32.24,109.20,430.0,431.0
陕西,57254,白河,32.49,110.07,323.7,322.5
陕西,57343,镇坪,31.54,109.32,994.6,995.8
上海,58361,闵行,31.06,121.22,10.2,5.5
上海,58362,宝山,31.24,121.27,6.7,5.5
上海,58365,嘉定,31.22,121.15,9.2,4.4
上海,58366,崇明,31.40,121.30,5.8,4.3
上海,58367,徐家汇,31.12,121.26,8.6,4.6
上海,58369,南汇,31.03,121.47,6.2,5.0
上海,58370,浦东,31.14,121.32,8.1,4.4
上海,58460,金山,30.44,121.21,6.2,5.2
上海,58461,青浦,31.08,121.07,8.5,4.0
上海,58462,松江,31.02,121.14,9.1,4.2
上海,58463,奉贤,30.53,121.30,9.5,4.6
四川,56038,石渠,32.59,98.06,4201.0,4200.0
四川,56079,若尔盖,33.35,102.58,3442.6,3441.4
四川,56097,九寨沟,33.16,104.15,1441.7,1440.5
四川,56144,德格,31.48,98.35,3185.0,3184.0
四川,56146,甘孜,31.37,100.00,3394.6,3393.5
四川,56147,白玉,31.13,98.50,3261.3,3260.0
四川,56152,色达,32.17,100.20,3895.8,3893.9
四川,56158,炉霍,31.24,100.40,3251.4,3250.0
四川,56164,壤塘,32.16,100.59,3286.0,3284.8
四川,56167,道孚,30.59,101.07,2959.2,2957.2
四川,56168,金川,31.29,102.04,2170.1,2168.9
四川,56171,阿坝,32.54,101.42,3276.3,3275.1
四川,56172,马尔康,31.54,102.14,2666.3,2664.4
四川,56173,红原,32.48,102.33,3492.8,3491.6
四川,56178,小金,31.00,102.21,2439.2,2438
四川,56180,茂县,31.41,103.51,1591.3,1590.1
四川,56181,崇州,30.41,103.42,543.3,541.7
四川,56182,松潘,32.40,103.36,2882.5,2881.3
四川,56183,汶川,31.30,103.37,1371.3,1370.1
四川,56184,理县,31.26,103.10,1897.9,1896.7
四川,56185,黑水,32.05,102.59,2401.3,2400.1
四川,56186,绵竹,31.20,104.12,590.2,589.0
四川,56187,温江,30.45,103.52,548.9,547.7
四川,56188,都江堰,31.00,103.40,699.7,698.5
四川,56189,彭州,30.59,103.56,582.9,581.7
四川,56197,什邡,31.09,104.10,536.8,535.7
四川,56198,德阳 ,31.19,104.30,526.7,525.7
四川,56199,中江,31.02,104.41,424.7,423.5
四川,56247,巴塘,30.00,99.06,2590.2,2589.2
四川,56251,新龙,30.56,100.19,2999.2,3000.0
四川,56257,理塘,30.00,100.16,3950.5,3948.9
四川,56263,丹巴,30.53,101.53,1951.0,1949.7
四川,56267,雅江,30.02,101.01,2602.2,2600.9
四川,56272,郫县,30.49,103.53,559.7,558.5
四川,56273,宝兴,30.23,102.49,1023.2,1022.0
四川,56276,新津,30.27,103.49,468.2,467.0
四川,56278,天全,30.04,102.46,758.0,755.8
四川,56279,芦山,30.09,102.56,683.9,682.7
四川,56280,名山,30.05,103.07,692.4,691.3
四川,56281,蒲江,30.11,103.30,512.0,510.8
四川,56284,邛崃,30.27,103.26,519.5,518.5
四川,56285,大邑,30.36,103.31,525.3,523.9
四川,56286,龙泉驿,30.33,104.15,516.3,515.1
四川,56288,双流,30.35,103.55,495.8,494.6
四川,56289,彭山,30.12,103.52,438.2,437.0
四川,56290,新都,30.47,104.11,515.7,514.5
四川,56296,金堂,30.51,104.26,449.5,448.4
四川,56297,仁寿,30.01,104.09,437.7,436.5
四川,56298,资阳,30.08,104.36,417.9,417.0
四川,56357,稻城,29.03,100.18,3728.6,3727.7
四川,56371,泸定,29.55,102.14,1322.4,1321.2
四川,56373,荥经,29.47,102.51,763.7,763.2
四川,56374,康定,30.03,101.58,2615.5,2615.7
四川,56376,汉源,29.21,102.38,1098.7,1098.0
四川,56378,石棉,29.14,102.21,891.9,890.7
四川,56380,洪雅,29.53,103.21,572.4,571.2
四川,56381,丹棱,30.04,103.30,631.4,630.2
四川,56382,夹江,29.44,103.36,408.3,407.1
四川,56383,青神,29.50,103.52,456.4,455.2
四川,56384,峨眉,29.36,103.29,447.9,446.7
四川,56385,峨眉山,29.31,103.20,3048.3,3047.4
四川,56386,乐山,29.34,103.45,425.2,424.2
四川,56387,峨边,29.14,103.16,643.4,642.2
四川,56389,犍为,29.12,103.57,388.8,387.6
四川,56390,井研,29.40,104.04,405.6,404.4
四川,56391,眉山,30.05,103.49,416.6,415.4
四川,56393,资中,29.46,104.51,370.9,369.4
四川,56394,荣县,29.27,104.26,385.3,384.1
四川,56395,威远,29.31,104.40,349.5,351.1
四川,56396,自贡,29.21,104.46,353.8,352.6
四川,56399,富顺,29.11,104.59,307.4,306.2
四川,56441,得荣,28.43,99.17,2424.1,2422.9
四川,56443,乡城,28.56,99.48,2843.1,2842.0
四川,56459,木里,27.56,101.16,2424.6,2426.5
四川,56462,九龙,29.00,101.30,2931.4,2925.0
四川,56473,甘洛,28.57,102.46,1061.5,1060.3
四川,56474,冕宁,28.33,102.10,1775.2,1774.0
四川,56475,越西,28.39,102.31,1660.1,1659.5
四川,56478,喜德,28.18,102.26,1819.3,1818.1
四川,56479,昭觉,28.00,102.51,2133.7,2132.4
四川,56480,马边,28.49,103.32,565.2,564.1
四川,56485,雷波,28.16,103.35,1254.8,1255.8
四川,56487,美姑,28.20,103.08,1945.1,1943.9
四川,56490,沐川,28.57,103.54,425.2,424.0
四川,56491,宜宾县,28.42,104.34,288.2,287.0
四川,56492,宜宾,28.48,104.36,342.1,340.8
四川,56493,南溪,28.51,104.58,294,292.8
四川,56494,屏山,28.39,104.09,463.2,462.0
四川,56496,兴文,28.19,105.14,330.0,358.2
四川,56498,筠连,28.09,104.30,550.2,549.0
四川,56499,珙县,28.23,104.47,369.4,368.2
四川,56565,盐源,27.26,101.31,2545.0,2545.0
四川,56569,德昌,27.25,102.11,1381.2,1380.0
四川,56571,西昌,27.54,102.16,1592.7,1590.9
四川,56575,普格,27.22,102.33,1429.2,1428.0
四川,56578,宁南,27.04,102.45,994.8,993.6
四川,56580,布拖,27.43,102.48,2461.5,2460.0
四川,56584,金阳,27.42,103.15,1093.7,1093.0
四川,56592,高县,28.26,104.31,360.9,359.7
四川,56593,长宁,28.35,104.55,281.9,279.1
四川,56665,盐边,26.41,101.51,1141.5,1140.3
四川,56666,攀枝花,26.35,101.43,1225.9,1224.8
四川,56670,米易,26.55,102.07,1138.3,1136.9
四川,56671,会理,26.39,102.15,1788.6,1787.3
四川,56674,仁和,26.30,101.44,1109.1,1108.0
四川,56675,会东,26.39,102.35,1695.7,1694.5
四川,57204,青川,32.34,105.13,783.2,782.0
四川,57206,广元,32.26,105.51,513.5,513.8
四川,57208,剑阁,32.17,105.31,545.7,544.5
四川,57216,南江,32.21,106.50,580.5,579.3
四川,57217,旺苍,32.14,106.17,486.9,485.7
四川,57237,万源,32.04,108.02,675.0,674.0
四川,57303,苍溪,31.44,105.55,461.1,459.9
四川,57306,阆中,31.35,105.58,385.4,382.6
四川,57307,三台,31.06,105.05,406.1,404.9
四川,57308,盐亭,31.13,105.23,422.5,421.3
四川,57309,西充,30.59,105.53,379.4,378.4
四川,57313,巴中,31.52,106.46,419.0,417.7
四川,57314,南部,31.21,106.04,406.9,405.7
四川,57315,仪陇,31.32,106.24,656.8,655.7
四川,57317,蓬安,31.02,106.25,326.1,324.9
四川,57318,营山,31.04,106.33,339.7,338.5
四川,57320,通江,31.56,107.13,483.1,482.4
四川,57324,平昌,31.35,107.05,365.1,364.2
四川,57326,宣汉,31.22,107.43,390.5,389.4
四川,57328,达川,31.12,107.30,344.4,344.9
四川,57329,开江,31.06,107.51,468.5,467.5
四川,57401,射洪,30.52,105.22,384.3,383.3
四川,57402,蓬溪,30.46,105.42,395.5,394.5
四川,57405,遂宁,30.30,105.33,355.3,355.0
四川,57407,乐至,30.17,105.02,463.8,462.6
四川,57408,安岳,30.07,105.21,339.6,338.4
四川,57411,高坪,30.47,106.06,311.0,309.7
四川,57413,渠县,30.51,106.58,296.2,295.1
四川,57414,岳池,30.31,106.27,404.9,403.7
四川,57415,广安,30.32,106.38,395.5,394.5
四川,57416,邻水,30.20,106.56,392.5,391.5
四川,57417,武胜,30.21,106.17,317.1,315.9
四川,57420,大竹,30.45,107.11,419.0,418.0
四川,57503,东兴区,29.37,105.07,351.4,349.7
四川,57507,隆昌,29.20,105.18,386.9,385.7
四川,57508,泸县,29.09,105.22,295.0,301.0
四川,57600,江安,28.43,105.04,421.8,420.9
四川,57603,合江,28.49,105.50,284.4,283.4
四川,57608,叙永,28.10,105.26,378.6,377.5
天津,54428,蓟县,40.02,117.24,16.9,15.7
天津,54523,武清,39.23,117.01,5.7,4.5
天津,54525,宝坻,39.44,117.17,6.3,5.1
天津,54526,东丽区,39.05,117.20,2.6,1.9
天津,54527,天津,39.05,117.03,4.3,3.5
天津,54528,北辰区,39.14,117.08,4.6,3.4
天津,54529,宁河,39.21,117.49,5.1,3.9
天津,54530,汉沽区,39.14,117.46,2.5,1.3
天津,54619,静海,38.55,116.55,6.7,5.5
天津,54622,津南区,38.59,117.22,3.9,3.7
天津,54623,塘沽,39.03,117.43,5.7,4.8
天津,54645,大港,38.51,117.28,3.4,2.2
西藏,55228,狮泉河,32.30,80.05,4279.8,4278.6
西藏,55248,改则,32.09,84.25,4416.1,4414.9
西藏,55299,那曲,31.29,92.04,4508.2,4507.0
西藏,55437,普兰,30.17,81.15,3901.2,3900.0
西藏,55493,当雄,30.29,91.06,4201.2,4200.0
西藏,55569,拉孜,29.05,87.36,4001.2,4000.0
西藏,55572,南木林,29.41,89.06,4001.3,4000.0
西藏,55593,墨竹工卡,29.51,91.44,3805.1,3804.0
西藏,55597,琼结,29.02,91.41,3741.2,3740.0
西藏,55598,泽当,29.16,91.46,3561.5,3560.0
西藏,55655,聂拉木,28.11,85.58,3811.2,3810.0
西藏,55664,定日,28.38,87.05,4301.2,4300.0
西藏,55680,江孜,28.55,89.36,4041.2,4040.0
西藏,56116,丁青,31.25,95.36,3874.3,3873.1
西藏,56128,类乌齐,31.13,96.36,3811.2,3810.0
西藏,56137,昌都,31.09,97.10,3316.2,3315.0
西藏,56223,洛隆,30.45,95.50,3641.2,3640.0
西藏,56227,波密,29.52,95.46,2737.2,2736.0
西藏,56228,八宿,30.03,96.55,3261.0,3260.0
西藏,56312,林芝,29.40,94.20,2993.0,2991.8
西藏,56317,米林,29.13,94.13,2951.2,2950.0
西藏,56331,左贡,29.40,97.50,3781.2,3780.0
西藏,56434,察隅,28.39,97.28,2328.8,2327.6
新疆,51053,哈巴河,48.03,86.24,533.7,532.6
新疆,51058,阿克达拉,47.06,87.58,564.3,563.3
新疆,51060,布尔津,47.42,86.52,475.6,473.9
新疆,51068,福海,47.07,87.28,502.7,500.9
新疆,51076,阿勒泰,47.44,88.05,736.5,735.3
新疆,51087,富蕴,46.59,89.31,809.7,807.5
新疆,51133,塔城,46.44,83.00,536.0,534.9
新疆,51137,裕民,46.12,82.56,715.7,715.4
新疆,51145,额敏,46.33,83.39,523.6,521.6
新疆,51156,和布克赛尔,46.47,85.43,1294.2,1291.6
新疆,51232,阿拉山口,45.11,82.34,337.1,336.1
新疆,51238,博乐,44.54,82.04,533.2,532.2
新疆,51241,托里,45.56,83.36,1077.1,1077.8
新疆,51243,克拉玛依,45.37,84.51,450.7,449.5
新疆,51334,精河,44.34,82.49,330.2,329.2
新疆,51357,沙湾,44.20,85.37,524.3,522.2
新疆,51359,玛纳斯,44.19,86.12,473.6,471.4
新疆,51367,呼图壁,44.10,86.51,576.2,575.1
新疆,51368,昌吉,44.07,87.19,516.7,515.7
新疆,51369,米泉,43.58,87.39,601.2,600.3
新疆,51377,阜康,44.10,87.55,547.9,547.0
新疆,51378,吉木萨尔,44.01,89.10,735.9,734.9
新疆,51468,天山大西沟,43.06,86.50,3543.8,3539.0
新疆,51469,鲁木齐牧试,43.27,87.11,1928.5,1930.0
新疆,51470,天池,43.53,88.07,1943.3,1942.5
新疆,51477,达坂城,43.21,88.19,1104.4,1103.5
新疆,51482,木垒,43.50,90.17,1272.5,1271.5
新疆,51526,库米什,42.14,88.13,924.0,922.4
新疆,51542,巴音布鲁克,43.02,84.09,2459.4,2458.0
新疆,51567,焉耆,42.05,86.34,1056.5,1055.3
新疆,51571,托克逊,42.48,88.38,2.0,1.0
新疆,51572,吐鲁番东坎,42.50,89.15,-47.4,-48.7
新疆,51573,吐鲁番,42.56,89.12,35.2,34.5
新疆,51627,乌什,41.13,79.14,1397.7,1395.8
新疆,51628,阿克苏,41.10,80.14,1105.0,1103.8
新疆,51636,新和,41.33,82.39,1010.8,1009.8
新疆,51639,沙雅,41.14,82.47,982.5,980.4
新疆,51656,库尔勒,41.45,86.08,932.5,931.5
新疆,51704,阿图什,39.43,76.10,1299.5,1298.7
新疆,51705,乌恰,39.43,75.15,2176.7,2175.7
新疆,51707,伽师,39.30,76.44,1209.6,1208.6
新疆,51709,喀什,39.29,75.45,1386.7,1385.6
新疆,51717,岳普湖,39.15,76.47,1207.8,1206.3
新疆,51720,柯坪,40.30,79.03,1162.5,1161.8
新疆,51722,阿瓦提,40.39,80.24,1045.1,1044.3
新疆,51730,阿拉尔,40.33,81.16,1013.1,1012.2
新疆,51747,塔中,39.00,83.40,1100.0,1099.3
新疆,51765,铁干里克,40.38,87.42,847.7,846.0
新疆,51802,英吉沙,38.56,76.10,1299.1,1297.5
新疆,51810,麦盖提,38.55,77.38,1179.2,1178.2
新疆,51811,莎车,38.26,77.16,1232.2,1231.2
新疆,51814,叶城,37.55,77.24,1360.4,1360.4
新疆,51815,泽普,38.12,77.16,1275.7,1274.7
新疆,51818,皮山,37.37,78.17,1376.4,1375.4
新疆,51826,策勒,37.01,80.48,1337.0,1336.5
新疆,51827,墨玉,37.10,79.38,1350.1,1348.9
新疆,51828,和田,37.08,79.56,1376.0,1375.0
新疆,51829,洛浦,37.05,80.10,1349.0,1347.9
新疆,51839,民丰,37.04,82.43,1410.5,1409.5
新疆,51855,且末,38.09,85.33,1248.4,1247.2
新疆,51931,于田,36.51,81.39,1423.3,1422.0
新疆,52101,巴里坤,43.36,93.03,1680.4,1679.4
新疆,52112,淖毛湖,43.45,94.59,480.0,479.0
新疆,52118,伊吾,43.16,94.42,1729.6,1728.6
新疆,52203,哈密,42.49,93.31,738.3,737.2
新疆,52313,红柳河,41.32,94.40,1574.8,1573.8
云南,56444,德钦,28.29,98.55,3320.8,3319.0
云南,56483,绥江,28.35,103.57,494.5,496.6
云南,56489,永善,28.14,103.38,876.3,877.2
云南,56497,盐津,28.06,104.14,433.3,448.8
云南,56533,贡山,27.45,98.40,1587.7,1583.3
云南,56543,香格里拉,27.50,99.42,3277.6,3276.7
云南,56548,维西,27.10,99.17,2326.0,2326.1
云南,56567,宁蒗,27.18,100.51,2242.3,2240.5
云南,56582,大关,27.45,103.54,1177.0,1176.2
云南,56585,鲁甸,27.11,103.32,1916.0,1916.0
云南,56586,昭通,27.21,103.43,1950.0,1949.5
云南,56594,彝良,27.38,104.03,884.0,880.4
云南,56595,镇雄,27.25,104.52,1644.3,1645.2
云南,56596,威信,27.51,105.03,1176.5,1177.2
云南,56641,福贡,26.54,98.52,1191.5,1189.7
云南,56643,六库,25.52,98.51,950.6,949.9
云南,56645,兰坪,26.25,99.25,2345.9,2344.9
云南,56646,剑川,26.32,99.55,2193.5,2191.4
云南,56649,洱源,26.06,99.58,2059.9,2059.9
云南,56651,丽江,26.51,100.13,2382.1,2380.9
云南,56652,永胜,26.41,100.45,2131.0,2130.5
云南,56654,鹤庆,26.35,100.11,2196.8,2195.4
云南,56664,华坪,26.38,101.16,1230.8,1230.8
云南,56669,永仁,26.03,101.40,1534.1,1531.3
云南,56673,巧家,26.55,102.55,894.9,893.9
云南,56684,会泽,26.24,103.15,2189.3,2188.3
云南,56688,东川,26.06,103.10,1253.4,1254.1
云南,56697,宣威,26.13,104.05,1987.4,1984.2
云南,56739,腾冲,24.59,98.30,1696.9,1695.9
云南,56742,云龙,25.54,99.22,1663.9,1658.5
云南,56745,漾濞,25.41,99.57,1627.2,1626.1
云南,56746,永平,25.28,99.31,1618.3,1616.7
云南,56748,保山,25.07,99.11,1651.2,1652.2
云南,56751,大理,25.42,100.11,1991.6,1990.5
云南,56752,宾川,25.50,100.34,1440.3,1438.7
云南,56755,弥渡,25.21,100.29,1670.0,1668.5
云南,56757,巍山,25.16,100.17,1744.0,1742.1
云南,56761,大姚,25.43,101.19,1873.7,1878.1
云南,56764,姚安,25.32,101.14,1875.2,1873.5
云南,56766,牟定,25.18,101.31,1821.6,1822.0
云南,56767,南华,25.11,101.17,1858.3,1857.4
云南,56772,富民,25.14,102.30,1694.4,1692.7
云南,56774,武定,25.32,102.25,1712.0,1710.7
云南,56777,禄丰,25.09,102.04,1566.8,1566.1
云南,56778,昆明,25.00,102.39,1889.1,1888.1
云南,56782,马龙,25.25,103.33,2064.8,2067.1
云南,56783,曲靖,25.30,103.48,1906.3,1906.2
云南,56785,嵩明,25.21,103.05,1916.7,1915.7
云南,56790,富源,25.41,104.15,1920.5,1925.8
云南,56835,陇川,24.04,97.49,958.7,959.1
云南,56836,盈江,24.42,97.57,828.1,826.7
云南,56839,镇康,23.46,98.49,994.5,995.3
云南,56840,粱河,24.49,98.18,1013.7,1012.9
云南,56841,龙陵,24.36,98.41,1527.6,1528.0
云南,56842,施甸,24.44,99.11,1473.4,1471.2
云南,56843,昌宁,24.50,99.37,1650.2,1650.6
云南,56844,芒市,24.26,98.35,915.0,913.8
云南,56846,凤庆,24.35,99.56,1569.8,1569.0
云南,56849,永德,24.02,99.14,1607.2,1606.2
云南,56851,南涧,25.02,100.31,1378.6,1377.2
云南,56854,云县,24.27,100.08,1108.1,1108.6
云南,56856,景东,24.28,100.52,1163.5,1162.3
云南,56862,双柏,24.41,101.36,1966.0,1968.1
云南,56863,安宁,24.56,102.29,1850.0,1848.0
云南,56867,镇沅,23.59,101.07,1107.2,1105.4
云南,56869,新平,24.04,101.58,1498.2,1497.5
云南,56870,易门,24.39,102.11,1597.7,1600.9
云南,56871,晋宁,24.39,102.36,1894.2,1893.1
云南,56873,澄江,24.41,102.55,1788.5,1796.3
云南,56875,玉溪,24.20,102.33,1717.5,1716.9
云南,56876,江川,24.17,102.46,1732.5,1731.1
云南,56878,通海,24.08,102.45,1802.4,1801.8
云南,56879,华宁,24.11,102.55,1698.9,1702.6
云南,56880,宜良,24.55,103.10,1532.9,1532.5
云南,56881,石林,24.45,103.16,1694.7,1695.8
云南,56882,呈贡,24.53,102.48,1909.2,1906.6
云南,56883,师宗,24.49,103.59,1901.9,1900.9
云南,56885,弥勒,24.24,103.27,1416.7,1415.5
云南,56886,泸西,24.32,103.46,1705.5,1704.3
云南,56889,丘北,24.03,104.10,1518.5,1518.7
云南,56891,罗平,24.59,104.19,1482.4,1482.7
云南,56898,峨山,24.11,102.24,1601.2,1600.0
云南,56944,沧源,23.09,99.16,1280.7,1278.3
云南,56946,耿马,23.33,99.24,1104.8,1104.9
云南,56948,西盟,22.38,99.36,1156.1,1155.0
云南,56949,孟连,22.19,99.36,946.1,945.0
云南,56950,双江,23.28,99.48,1044.0,1044.1
云南,56951,临沧,23.53,100.05,1502.6,1502.4
云南,56952,景谷,23.30,100.42,914.0,913.2
云南,56954,澜沧,22.34,99.56,1054.4,1054.8
云南,56958,勐海,21.55,100.25,1177.5,1176.3
云南,56962,墨江,23.25,101.40,1315.3,1314.6
云南,56964,思茅,22.47,100.58,1302.9,1302.1
云南,56966,元江,23.36,101.59,401.6,400.9
云南,56969,勐腊,21.28,101.35,634.4,633.4
云南,56970,石屏,23.42,102.29,1419.9,1419.3
云南,56975,红河,23.22,102.26,975.9,974.5
云南,56976,元阳,23.14,102.50,229.4,232.0
云南,56977,江城,22.35,101.51,1121.0,1120.5
云南,56978,绿春,23.00,102.25,1640.7,1642.8
云南,56982,开远,23.42,103.17,1117.6,1117.0
云南,56984,个旧,23.23,103.09,1717.7,1720.5
云南,56987,金平,22.47,103.14,1261.1,1260.0
云南,56991,砚山,23.37,104.20,1561.1,1561.1
云南,56992,西畴,23.27,104.42,1508.1,1507.5
云南,56994,文山,23.20,104.17,1292.7,1293.5
云南,56995,马关,23.02,104.25,1335.4,1332.9
云南,59007,广南,24.04,105.04,1251.4,1249.6
云南,59205,富宁,23.39,105.38,688.3,685.8
浙江,58443,长兴,31.01,119.54,19.8,25.0
浙江,58446,安吉,30.38,119.42,66.8,72.2
浙江,58448,临安,30.13,119.42,118.6,117.6
浙江,58449,富阳,30.03,119.57,47.9,46.5
浙江,58450,湖州,30.52,120.03,7.8,7.4
浙江,58451,嘉善,30.50,120.56,3.4,2.6
浙江,58452,嘉兴,30.44,120.46,4.3,4.8
浙江,58453,绍兴,30.04,120.30,10.7,7.9
浙江,58454,德清,30.32,119.59,103.0,102.0
浙江,58455,海宁,30.31,120.39,8.1,8.8
浙江,58456,桐乡,30.38,120.31,6.7,6.0
浙江,58457,杭州,30.14,120.10,42.6,41.7
浙江,58458,海盐,30.32,120.54,3.9,4.8
浙江,58459,萧山,30.11,120.17,42.4,44.3
浙江,58464,平湖,30.39,121.07,5.5,4.0
浙江,58467,慈溪,30.12,121.16,5.7,4.5
浙江,58468,余姚,30.03,121.10,6.6,5.4
浙江,58472,嵊泗,30.44,122.27,73.9,79.6
浙江,58477,定海,30.02,122.06,36.7,35.7
浙江,58484,岱山,30.15,122.12,9.4,37.1
浙江,58537,开化,29.08,118.24,154.1,153.6
浙江,58542,桐庐,29.49,119.41,47.3,46.1
浙江,58543,淳安,29.37,119.01,172.6,171.4
浙江,58544,建德,29.29,119.16,90.1,88.9
浙江,58546,浦江,29.28,119.53,114.2,115.8
浙江,58547,龙游,29.02,119.11,65.1,66.2
浙江,58548,兰溪,29.13,119.28,46.7,50.2
浙江,58549,金华,29.07,119.39,61.4,62.6
浙江,58550,诸暨,29.42,120.15,39.4,39.1
浙江,58553,上虞,30.03,120.49,6.4,6.4
浙江,58555,新昌,29.31,120.53,112.4,113.9
浙江,58556,嵊州,29.36,120.49,103.8,104.3
浙江,58557,义乌,29.20,120.05,87.6,90.0
浙江,58558,东阳,29.16,120.13,89.0,89.9
浙江,58559,天台,29.10,120.59,59.5,58.3
浙江,58560,磐安,29.03,120.26,301.3,304.5
浙江,58561,镇海,29.59,121.36,5.2,4.0
浙江,58562,鄞州,29.47,121.33,6.2,5.0
浙江,58563,北仑,29.53,121.50,6.0,5.0
浙江,58565,奉化,29.42,121.23,42.7,41.5
浙江,58566,象山,29.28,121.53,7.2,6.0
浙江,58567,宁海,29.19,121.26,40.4,39.3
浙江,58568,三门,29.07,121.23,35.9,34.5
浙江,58569,石浦,29.12,121.57,129.2,128.4
浙江,58570,普陀,29.57,122.18,83.2,85.2
浙江,58631,常山,28.54,118.30,132.1,137.0
浙江,58632,江山,28.43,118.36,124.1,126.3
浙江,58642,武义,28.53,119.48,102.6,105.1
浙江,58643,永康,28.54,120.02,99.4,102.9
浙江,58644,遂昌,28.36,119.17,237.2,237.8
浙江,58646,丽水,28.27,119.55,59.6,59.7
浙江,58647,龙泉,28.05,119.08,217.3,222.1
浙江,58652,仙居,28.52,120.43,79.1,83.0
浙江,58654,缙云,28.40,120.05,184.9,184.7
浙江,58656,乐清,28.04,120.58,58.2,60.8
浙江,58657,青田,28.09,120.17,59.0,57.8
浙江,58658,永嘉,28.09,120.41,36.4,34.3
浙江,58659,温州,28.02,120.39,29.0,28.3
浙江,58660,临海,28.52,121.12,6.8,6.6
浙江,58664,温岭,28.22,121.22,33.6,35.3
浙江,58665,洪家,28.37,121.25,5.3,4.6
浙江,58666,大陈,28.27,121.54,84.4,86.2
浙江,58667,玉环,28.05,121.16,99.4,95.9
浙江,58742,云和,28.07,119.33,159.6,163.0
浙江,58745,庆元,27.37,119.05,391.7,400.8
浙江,58746,泰顺,27.33,119.42,514.2,538.9
浙江,58750,文成,27.47,120.05,106.4,105.4
浙江,58751,平阳,27.40,120.34,255.0,254
浙江,58752,瑞安,27.47,120.39,37.9,39.7
浙江,58648,景宁,28.00,119.38,247.8,246.8
重庆,57333,城口,31.57,108.40,800.0,798.2
重庆,57338,开县,31.11,108.25,213.2,216.5
重庆,57339,云阳,30.57,108.41,296.4,297.2
重庆,57345,巫溪,31.24,109.37,339.8,337.8
重庆,57348,奉节,31.01,109.32,300.3,299.8
重庆,57349,巫山,31.04,109.52,275.9,275.7
重庆,57409,潼南,30.11,105.48,295.8,297.7
重庆,57425,垫江,30.20,107.20,430.5,433.8
重庆,57431,天城,30.50,108.21,256.8,257.0
重庆,57432,万州,30.46,108.24,188.8,186.7
重庆,57437,忠县,30.18,108.02,326.3,325.6
重庆,57438,石柱,29.59,108.07,630.3,632.3
重庆,57502,大足,29.42,105.42,395.3,394.7
重庆,57505,荣昌,29.25,105.35,324.0,338.0
重庆,57506,永川,29.22,105.54,351.8,353.0
重庆,57509,万盛,28.57,106.56,325.7,325.3
重庆,57510,铜梁,29.51,106.04,327.5,326.3
重庆,57511,北碚,29.51,106.27,242.9,240.8
重庆,57512,合川,29.58,106.17,231.2,230.6
重庆,57513,渝北,29.44,106.37,465.5,464.7
重庆,57514,璧山,29.35,106.13,325.0,331.5
重庆,57516,沙坪坝,29.35,106.28,259.6,259.1
重庆,57517,江津,29.17,106.15,256.3,261.4
重庆,57518,巴南,29.20,106.30,506.9,506.1
重庆,57519,南川,29.10,107.07,699.8,698.8
重庆,57520,长寿,29.50,107.04,382.8,377.6
重庆,57523,丰都,29.51,107.44,290.4,290.5
重庆,57525,武隆,29.19,107.45,273.3,277.9
重庆,57536,黔江,29.32,108.47,608.8,607.3
重庆,57537,彭水,29.18,108.10,321.3,322.2
重庆,57612,綦江,29.00,106.39,475.9,474.7
重庆,57633,酉阳,28.49,108.46,827.7,826.5
重庆,57635,秀山,28.27,108.59,364.0,363.7
极地,89573,南极中山,-69.22,-76.22,17.0,14.9
极地,89058,南极长城,-62.13,-58.58,12.0,10.0
